$GPGSA,A,3,21,18,15,24,22,03,,,,,,,02.6,01.7,02.1*08
$GPGSV,3,1,12,21,85,284,41,18,65,283,47,15,52,061,38,24,46,124,35*77
$GPGSV,3,2,12,22,26,264,45,03,17,313,30,08,15,051,,09,14,139,*76
$GPGSV,3,3,12,29,10,040,,26,01,037,,16,01,302,,00,00,000,*72
$GPRMC,140345.24,A,4455.6214,N,09329.5341,W,000.0,000.0,040608,001.2,E,A*2C
$GPGGA,140345.24,4455.6214,N,09329.5341,W,1,05,02.3,00286.4,M,-030.7,M,,*59
$GPGSA,A,3,21,18,15,24,22,,,,,,,,03.6,02.3,02.7*0B
$GPGSV,3,1,12,21,85,284,40,18,65,283,47,15,52,061,38,24,46,124,34*77
$GPGSV,3,2,12,22,26,264,45,03,17,313,30,08,15,051,,09,14,139,*76
$GPGSV,3,3,12,29,10,040,,16,01,302,,26,01,037,,00,00,000,*72
$GPRMC,140346.24,A,4455.6214,N,09329.5341,W,000.0,000.0,040608,001.2,E,A*2F
$GPGGA,140346.24,4455.6214,N,09329.5341,W,1,06,01.7,00286.4,M,-030.7,M,,*5E
$GPGSA,A,3,21,18,15,24,22,03,,,,,,,02.6,01.7,02.1*08
$GPGSV,3,1,12,21,85,284,40,18,65,283,47,15,52,061,38,24,46,124,34*77
$GPGSV,3,2,12,22,26,264,44,03,17,313,30,08,15,051,,09,14,139,*77
$GPGSV,3,3,12,29,10,040,,16,01,302,,26,01,037,,00,00,000,*72
$GPRMC,140347.24,A,4455.6214,N,09329.5341,W,000.0,000.0,040608,001.2,E,A*2E
$GPGGA,140347.24,4455.6214,N,09329.5341,W,1,06,01.7,00286.4,M,-030.7,M,,*5F
$GPGSA,A,3,21,18,15,24,22,03,,,,,,,02.6,01.7,02.1*08
$GPGSV,3,1,12,21,85,284,40,18,65,283,46,15,52,061,38,24,46,124,33*71
$GPGSV,3,2,12,22,26,264,44,03,17,313,29,08,15,051,,09,14,139,*7F
$GPGSV,3,3,12,29,10,040,,26,01,037,,16,01,302,,00,00,000,*72
$GPRMC,140348.24,A,4455.6214,N,09329.5341,W,000.0,000.0,040608,001.2,E,A*21
$GPGGA,140348.24,4455.6214,N,09329.5341,W,1,05,02.3,00286.4,M,-030.7,M,,*54
$GPGSA,A,3,21,18,15,24,22,,,,,,,,03.6,02.3,02.7*0B
$GPGSV,3,1,12,21,85,284,40,18,65,283,46,15,52,061,38,24,46,124,32*70
$GPGSV,3,2,12,22,26,264,43,03,17,313,27,08,15,051,,09,14,139,*76
$GPGSV,3,3,12,29,10,040,,26,01,037,,16,01,302,,00,00,000,*72
$GPRMC,140349.24,A,4455.6214,N,09329.5341,W,000.1,000.0,040608,001.2,E,A*21
$GPGGA,140349.24,4455.6214,N,09329.5341,W,1,05,02.3,00286.4,M,-030.7,M,,*55
$GPGSA,A,3,21,18,15,24,22,,,,,,,,03.6,02.3,02.7*0B
$GPGSV,3,1,12,21,85,284,40,18,65,283,46,15,52,061,37,24,46,124,32*7F
$GPGSV,3,2,12,22,26,264,43,03,17,313,26,08,15,051,,09,14,139,*77
$GPGSV,3,3,12,29,10,040,,26,01,037,,16,01,302,,00,00,000,*72
$GPRMC,140350.24,A,4455.6214,N,09329.5341,W,000.1,000.0,040608,001.2,E,A*29
$GPGGA,140350.24,4455.6214,N,09329.5341,W,1,05,02.3,00286.4,M,-030.7,M,,*5D
$GPGSA,A,3,21,18,15,24,22,,,,,,,,03.6,02.3,02.7*0B
$GPGSV,3,1,12,21,85,284,40,18,65,283,46,15,52,061,37,24,46,124,31*7C
$GPGSV,3,2,12,22,26,264,42,03,17,313,25,08,15,051,,09,14,139,*75
$GPGSV,3,3,12,29,10,040,,26,01,037,,16,01,302,,00,00,000,*72
$GPRMC,140351.24,A,4455.6214,N,09329.5341,W,000.3,000.0,040608,001.2,E,A*2A
$GPGGA,140351.24,4455.6214,N,09329.5341,W,1,04,09.0,00286.4,M,-030.7,M,,*55
$GPGSA,A,3,21,18,15,,22,,,,,,,,09.5,09.0,03.0*0A
$GPGSV,3,1,12,21,85,284,39,18,65,283,46,15,52,061,38,24,46,124,29*74
$GPGSV,3,2,12,22,26,264,40,03,17,313,23,08,15,051,,09,14,139,*71
$GPGSV,3,3,12,29,10,040,,26,01,037,,16,01,302,,00,00,000,*72
$GPRMC,140352.24,A,4455.6214,N,09329.5341,W,000.4,009.6,040608,001.2,E,A*21
$GPGGA,140352.24,4455.6214,N,09329.5341,W,1,06,01.7,00286.4,M,-030.7,M,,*5B
$GPGSA,A,3,21,18,15,24,22,03,,,,,,,02.6,01.7,02.1*08
$GPGSV,3,1,12,21,85,284,40,18,65,283,46,15,52,061,38,24,46,124,30*72
$GPGSV,3,2,12,22,26,264,39,03,17,313,26,08,15,050,,09,14,139,*7B
$GPGSV,3,3,12,29,10,040,,26,01,037,,16,01,302,,00,00,000,*72
$GPRMC,140353.24,A,4455.6214,N,09329.5341,W,001.2,010.3,040608,001.2,E,A*2A
$GPGGA,140353.24,4455.6214,N,09329.5341,W,1,06,01.7,00286.4,M,-030.7,M,,*5A
$GPGSA,A,3,21,18,15,24,22,03,,,,,,,02.6,01.7,02.1*08
$GPGSV,3,1,12,21,85,284,40,18,65,283,46,15,52,061,38,24,46,124,33*71
$GPGSV,3,2,12,22,26,264,40,03,17,313,29,08,15,050,,09,14,138,*7B
$GPGSV,3,3,12,29,10,040,,26,01,037,,16,01,302,,00,00,000,*72
$GPRMC,140354.24,A,4455.6214,N,09329.5341,W,002.3,001.4,040608,001.2,E,A*28
$GPGGA,140354.24,4455.6214,N,09329.5341,W,1,06,01.7,00286.4,M,-030.7,M,,*5D
$GPGSA,A,3,21,18,15,24,22,03,,,,,,,02.6,01.7,02.1*08
$GPGSV,3,1,12,21,85,284,40,18,65,283,45,15,52,061,39,24,46,124,37*77
$GPGSV,3,2,12,22,26,264,41,03,17,313,33,08,15,050,,09,14,138,*71
$GPGSV,3,3,12,29,10,040,,26,01,037,,16,01,302,,00,00,000,*72
$GPRMC,140355.24,A,4455.6361,N,09329.5300,W,003.0,353.8,040608,001.2,E,A*25
$GPGGA,140355.24,4455.6361,N,09329.5300,W,1,06,01.7,00293.6,M,-030.7,M,,*5C
$GPGSA,A,3,21,18,15,24,22,03,,,,,,,02.6,01.7,02.1*08
$GPGSV,3,1,12,21,85,284,40,18,65,283,43,15,52,061,39,24,46,124,39*7F
$GPGSV,3,2,12,22,26,264,40,03,17,313,35,08,15,050,,09,14,138,*76
$GPGSV,3,3,12,29,10,040,,26,01,037,,16,01,302,,00,00,000,*72
$GPRMC,140356.24,A,4455.6367,N,09329.5309,W,004.5,348.7,040608,001.2,E,A*2E
$GPGGA,140356.24,4455.6367,N,09329.5309,W,1,06,01.7,00293.4,M,-030.7,M,,*52
$GPGSA,A,3,21,18,15,24,22,03,,,,,,,02.6,01.7,02.1*08
$GPGSV,3,1,12,21,85,284,39,18,65,283,42,15,52,061,38,24,46,124,40*7F
$GPGSV,3,2,12,22,26,264,38,03,17,313,35,08,15,050,,09,14,138,*79
$GPGSV,3,3,12,29,10,040,,26,01,037,,16,01,302,,00,00,000,*72
$GPRMC,140357.24,A,4455.6376,N,09329.5327,W,004.6,346.2,040608,001.2,E,A*2B
$GPGGA,140357.24,4455.6376,N,09329.5327,W,1,04,06.2,00294.5,M,-030.7,M,,*59
$GPGSA,A,3,21,18,,,22,03,,,,,,,09.0,06.2,06.5*05
$GPGSV,3,1,12,21,85,284,38,18,65,283,40,15,52,061,36,24,46,124,38*7D
$GPGSV,3,2,12,22,26,264,36,03,17,313,35,08,15,050,,09,14,138,*77
$GPGSV,3,3,12,29,10,040,,26,01,037,,16,01,302,,00,00,000,*72
$GPRMC,140358.24,A,4455.6378,N,09329.5347,W,004.2,342.7,040608,001.2,E,A*29
$GPGGA,140358.24,4455.6378,N,09329.5347,W,1,04,13.0,00295.6,M,-030.7,M,,*5A
$GPGSA,A,3,21,18,,,22,03,,,,,,,14.5,13.0,06.5*0A
$GPGSV,3,1,12,21,85,284,37,18,65,283,38,15,52,061,34,24,46,124,36*71
$GPGSV,3,2,12,22,26,264,34,03,17,313,33,08,15,050,,09,14,138,*73
$GPGSV,3,3,12,29,10,040,,26,01,037,,16,01,302,,00,00,000,*72
$GPRMC,140359.24,A,4455.6388,N,09329.5354,W,004.2,342.2,040608,001.2,E,A*20
$GPGGA,140359.24,4455.6388,N,09329.5354,W,1,04,03.0,00295.2,M,-030.7,M,,*53
$GPGSA,A,3,21,18,15,24,,,,,,,,,09.1,03.0,08.6*0F
$GPGSV,3,1,12,21,85,284,39,18,65,283,37,15,52,061,34,24,46,124,36*70
$GPGSV,3,2,12,22,26,264,34,03,17,313,31,08,15,050,,09,14,138,*71
$GPGSV,3,3,12,29,10,040,,26,01,037,,16,01,302,,00,00,000,*72
$GPRMC,140400.24,A,4455.6401,N,09329.5359,W,004.3,341.3,040608,001.2,E,A*23
$GPGGA,140400.24,4455.6401,N,09329.5359,W,1,05,02.3,00294.5,M,-030.7,M,,*56
$GPGSA,A,3,21,18,15,24,,03,,,,,,,03.3,02.3,02.3*09
$GPGSV,3,1,12,21,85,284,41,18,65,283,38,15,52,061,34,24,46,124,34*72
$GPGSV,3,2,12,22,26,264,33,03,17,313,33,08,15,050,,09,14,138,*74
$GPGSV,3,3,12,29,10,040,,26,01,037,,16,01,302,,00,00,000,*72
$GPRMC,140401.24,A,4455.6416,N,09329.5364,W,004.8,345.9,040608,001.2,E,A*2F
$GPGGA,140401.24,4455.6416,N,09329.5364,W,1,05,03.5,00293.9,M,-030.7,M,,*53
$GPGSA,A,3,21,18,15,24,,03,,,,,,,04.2,03.5,02.4*0F
$GPGSV,3,1,12,21,85,284,41,18,65,283,38,15,52,061,33,24,46,124,32*73
$GPGSV,3,2,12,22,26,264,30,03,17,313,32,08,15,050,,09,14,138,*76
$GPGSV,3,3,12,29,10,040,,16,01,302,,26,01,037,,00,00,000,*72
$GPRMC,140402.24,A,4455.6436,N,09329.5367,W,004.8,348.8,040608,001.2,E,A*21
$GPGGA,140402.24,4455.6436,N,09329.5367,W,1,04,08.9,00293.8,M,-030.7,M,,*56
$GPGSA,A,3,21,18,15,,22,,,,,,,,09.4,08.9,03.0*03
$GPGSV,3,1,12,21,85,284,42,18,65,283,39,15,52,061,37,24,46,124,30*77
$GPGSV,3,2,12,22,26,264,31,03,17,313,31,08,15,050,,09,14,138,*74
$GPGSV,3,3,12,29,10,040,41,16,01,302,,26,01,037,,00,00,000,*77
$GPRMC,140403.24,A,4455.6447,N,09329.5368,W,004.5,351.5,040608,001.2,E,A*21
$GPGGA,140403.24,4455.6447,N,09329.5368,W,1,04,03.0,00294.1,M,-030.7,M,,*52
$GPGSA,A,3,21,18,15,24,,,,,,,,,09.1,03.0,08.6*0F
$GPGSV,3,1,12,21,85,281,43,18,65,283,40,15,52,061,39,24,46,124,30*73
$GPGSV,3,2,12,22,26,264,31,03,17,313,31,08,15,050,,09,14,138,*74
$GPGSV,3,3,12,29,10,040,41,16,01,302,,19,00,332,,00,00,000,*7C
$GPRMC,140404.24,A,4455.6453,N,09329.5368,W,003.6,355.1,040608,001.2,E,A*27
$GPGGA,140404.24,4455.6453,N,09329.5368,W,1,05,02.3,00293.7,M,-030.7,M,,*52
$GPGSA,A,3,21,18,15,24,22,,,,,,,,03.6,02.3,02.7*0B
$GPGSV,3,1,12,21,85,281,43,18,65,283,40,15,52,061,40,24,46,124,30*7D
$GPGSV,3,2,12,22,26,264,35,03,17,313,30,08,15,050,,09,14,138,*71
$GPGSV,3,3,12,29,10,040,40,16,01,302,,19,00,332,,00,00,000,*7D
$GPRMC,140405.24,A,4455.6463,N,09329.5371,W,003.2,357.4,040608,001.2,E,A*2E
$GPGGA,140405.24,4455.6463,N,09329.5371,W,1,05,02.3,00293.3,M,-030.7,M,,*5C
$GPGSA,A,3,21,18,15,24,22,,,,,,,,03.6,02.3,02.7*0B
$GPGSV,3,1,12,21,85,281,43,18,65,283,41,15,52,061,41,24,46,124,32*7F
$GPGSV,3,2,12,22,26,264,36,03,17,313,30,08,15,050,,09,14,138,*72
$GPGSV,3,3,12,29,10,040,40,16,01,302,,19,00,332,,00,00,000,*7D
$GPRMC,140406.24,A,4455.6466,N,09329.5372,W,003.2,358.8,040608,001.2,E,A*28
$GPGGA,140406.24,4455.6466,N,09329.5372,W,1,05,02.3,00292.7,M,-030.7,M,,*5C
$GPGSA,A,3,21,18,15,24,22,,,,,,,,03.6,02.3,02.7*0B
$GPGSV,3,1,12,21,85,281,43,18,65,283,42,15,52,061,42,24,46,124,33*7E
$GPGSV,3,2,12,22,26,264,36,03,17,313,29,08,15,050,,09,14,138,*7A
$GPGSV,3,3,12,29,10,040,40,16,01,302,,19,00,332,,00,00,000,*7D
$GPRMC,140407.24,A,4455.6472,N,09329.5371,W,003.0,000.2,040608,001.2,E,A*29
$GPGGA,140407.24,4455.6472,N,09329.5371,W,1,06,01.6,00291.2,M,-030.7,M,,*58
$GPGSA,A,3,21,18,15,24,22,03,,,,,,,02.6,01.6,02.1*09
$GPGSV,3,1,12,21,85,281,43,18,65,283,42,15,52,061,43,24,46,124,35*79
$GPGSV,3,2,12,22,26,264,37,03,17,313,29,08,15,050,,09,14,138,*7B
$GPGSV,3,3,12,29,10,040,40,16,01,302,,19,00,332,,00,00,000,*7D
$GPRMC,140408.24,A,4455.6479,N,09329.5368,W,003.4,007.5,040608,001.2,E,A*21
$GPGGA,140408.24,4455.6479,N,09329.5368,W,1,06,01.6,00290.0,M,-030.7,M,,*57
$GPGSA,A,3,21,18,15,24,22,03,,,,,,,02.6,01.6,02.1*09
$GPGSV,3,1,12,21,85,281,44,18,65,283,43,15,52,061,43,24,46,124,37*7D
$GPGSV,3,2,12,22,26,264,39,03,17,313,31,08,15,050,,09,14,138,*7C
$GPGSV,3,3,12,29,10,040,39,16,01,302,,19,00,332,,00,00,000,*73
$GPRMC,140409.24,A,4455.6488,N,09329.5357,W,005.3,026.8,040608,001.2,E,A*2D
$GPGGA,140409.24,4455.6488,N,09329.5357,W,1,06,01.6,00288.9,M,-030.7,M,,*54
$GPGSA,A,3,21,18,15,24,22,03,,,,,,,02.6,01.6,02.1*09
$GPGSV,3,1,12,21,85,281,44,18,65,283,44,15,52,061,43,24,46,124,38*75
$GPGSV,3,2,12,22,26,264,40,03,17,313,32,08,15,050,,09,14,138,*71
$GPGSV,3,3,12,29,10,040,36,16,01,302,,19,00,332,,00,00,000,*7C
$GPRMC,140410.24,A,4455.6493,N,09329.5336,W,005.7,051.4,040608,001.2,E,A*20
$GPGGA,140410.24,4455.6493,N,09329.5336,W,1,06,01.6,00288.0,M,-030.7,M,,*58
$GPGSA,A,3,21,18,15,24,22,03,,,,,,,02.6,01.6,02.1*09
$GPGSV,3,1,12,21,85,281,44,18,65,283,45,15,52,061,42,24,46,124,40*7A
$GPGSV,3,2,12,22,26,264,40,03,17,313,32,08,15,050,,09,14,138,*71
$GPGSV,3,3,12,29,10,040,34,16,01,302,,19,00,332,,00,00,000,*7E
$GPRMC,140411.24,A,4455.6495,N,09329.5307,W,006.8,067.2,040608,001.2,E,A*2A
$GPGGA,140411.24,4455.6495,N,09329.5307,W,1,06,01.6,00286.9,M,-030.7,M,,*5A
$GPGSA,A,3,21,18,15,24,22,03,,,,,,,02.6,01.6,02.1*09
$GPGSV,3,1,12,21,85,281,44,18,65,283,46,15,52,061,40,24,46,124,39*75
$GPGSV,3,2,12,22,26,264,40,03,17,313,34,08,15,050,,09,14,138,*77
$GPGSV,3,3,12,29,10,040,32,16,01,302,,19,00,332,,00,00,000,*78
$GPRMC,140412.24,A,4455.6494,N,09329.5271,W,010.3,079.4,040608,001.2,E,A*2D
$GPGGA,140412.24,4455.6494,N,09329.5271,W,1,06,01.6,00286.3,M,-030.7,M,,*52
$GPGSA,A,3,21,18,15,24,22,03,,,,,,,02.6,01.6,02.1*09
$GPGSV,3,1,12,21,85,281,44,18,65,283,46,15,52,061,40,24,46,124,39*75
$GPGSV,3,2,12,22,26,264,39,03,17,313,36,08,15,050,,09,14,138,*7B
$GPGSV,3,3,12,29,10,040,30,16,01,302,,19,00,332,,00,00,000,*7A
$GPRMC,140413.24,A,4455.6491,N,09329.5225,W,013.3,086.0,040608,001.2,E,A*2F
$GPGGA,140413.24,4455.6491,N,09329.5225,W,1,06,01.6,00285.8,M,-030.7,M,,*5F
$GPGSA,A,3,21,18,15,24,22,03,,,,,,,02.6,01.6,02.1*09
$GPGSV,3,1,12,21,85,281,44,18,65,283,45,15,52,061,41,24,46,124,39*77
$GPGSV,3,2,12,22,26,264,38,03,17,313,37,08,15,050,,09,14,138,*7B
$GPGSV,3,3,12,29,10,040,31,16,01,302,,19,00,332,,00,00,000,*7B
$GPRMC,140414.24,A,4455.6488,N,09329.5166,W,016.6,089.2,040608,001.2,E,A*29
$GPGGA,140414.24,4455.6488,N,09329.5166,W,1,06,01.6,00285.3,M,-030.7,M,,*5F
$GPGSA,A,3,21,18,15,24,22,03,,,,,,,02.6,01.6,02.1*09
$GPGSV,3,1,12,21,85,281,44,18,65,283,45,15,52,061,41,24,46,124,39*77
$GPGSV,3,2,12,22,26,264,37,03,17,313,37,08,15,050,,09,14,138,*74
$GPGSV,3,3,12,29,10,040,30,16,01,302,,19,00,332,,00,00,000,*7A
$GPRMC,140415.24,A,4455.6487,N,09329.5098,W,019.4,090.7,040608,001.2,E,A*27
$GPGGA,140415.24,4455.6487,N,09329.5098,W,1,05,02.3,00285.2,M,-030.7,M,,*55
$GPGSA,A,3,21,18,15,24,22,,,,,,,,03.6,02.3,02.7*0B
$GPGSV,3,1,12,21,85,281,44,18,65,283,44,15,52,061,41,24,46,124,39*76
$GPGSV,3,2,12,22,26,264,37,03,17,313,34,08,15,050,,09,14,138,*77
$GPGSV,3,3,12,29,10,040,27,16,01,302,,19,00,332,,00,00,000,*7C
$GPRMC,140416.24,A,4455.6487,N,09329.5023,W,021.2,091.4,040608,001.2,E,A*2B
$GPGGA,140416.24,4455.6487,N,09329.5023,W,1,05,02.3,00285.0,M,-030.7,M,,*54
$GPGSA,A,3,21,18,15,24,22,,,,,,,,03.6,02.3,02.7*0B
$GPGSV,3,1,12,21,85,281,44,18,65,283,44,15,52,061,42,24,46,124,39*75
$GPGSV,3,2,12,22,26,264,37,03,17,313,31,08,15,050,,09,14,138,*72
$GPGSV,3,3,12,29,10,040,24,16,01,302,,19,00,332,,00,00,000,*7F
$GPRMC,140417.24,A,4455.6486,N,09329.4935,W,022.1,091.4,040608,001.2,E,A*24
$GPGGA,140417.24,4455.6486,N,09329.4935,W,1,06,01.6,00283.9,M,-030.7,M,,*51
$GPGSA,A,3,21,18,15,24,22,03,,,,,,,02.6,01.6,02.1*09
$GPGSV,3,1,12,21,85,281,44,18,65,283,44,15,52,061,42,24,46,124,39*75
$GPGSV,3,2,12,22,26,264,37,03,17,313,33,08,15,050,,09,14,138,*70
$GPGSV,3,3,12,29,10,040,23,16,01,302,,19,00,332,,00,00,000,*78
$GPRMC,140418.24,A,4455.6479,N,09329.4846,W,024.0,091.4,040608,001.2,E,A*29
$GPGGA,140418.24,4455.6479,N,09329.4846,W,1,06,01.6,00283.3,M,-030.7,M,,*51
$GPGSA,A,3,21,18,15,24,22,03,,,,,,,02.6,01.6,02.1*09
$GPGSV,3,1,12,21,85,281,44,18,65,283,44,15,52,061,41,24,46,124,39*76
$GPGSV,3,2,12,22,26,264,37,03,17,313,34,08,15,050,,09,14,138,*77
$GPGSV,3,3,12,29,10,040,25,16,01,302,,19,00,332,,00,00,000,*7E
$GPRMC,140419.24,A,4455.6469,N,09329.4749,W,024.2,091.8,040608,001.2,E,A*27
$GPGGA,140419.24,4455.6469,N,09329.4749,W,1,06,01.6,00282.9,M,-030.7,M,,*5A
$GPGSA,A,3,21,18,15,24,22,03,,,,,,,02.6,01.6,02.1*09
$GPGSV,3,1,12,21,85,281,43,18,65,283,45,15,52,061,40,24,46,124,39*71
$GPGSV,3,2,12,22,26,264,37,03,17,313,35,08,15,050,,09,14,138,*76
$GPGSV,3,3,12,29,10,040,25,16,01,302,,19,00,332,,00,00,000,*7E
$GPRMC,140420.24,A,4455.6467,N,09329.4647,W,026.0,091.9,040608,001.2,E,A*2D
$GPGGA,140420.24,4455.6467,N,09329.4647,W,1,05,02.3,00281.8,M,-030.7,M,,*56
$GPGSA,A,3,21,18,15,24,22,,,,,,,,03.6,02.3,02.7*0B
$GPGSV,3,1,12,21,85,281,43,18,65,283,45,15,52,061,39,24,46,124,39*7F
$GPGSV,3,2,12,22,26,264,38,03,17,313,35,08,15,050,,09,14,138,*79
$GPGSV,3,3,12,29,10,040,24,16,01,302,,19,00,332,,00,00,000,*7F
$GPRMC,140421.24,A,4455.6460,N,09329.4547,W,026.1,091.7,040608,001.2,E,A*27
$GPGGA,140421.24,4455.6460,N,09329.4547,W,1,06,01.6,00282.7,M,-030.7,M,,*5A
$GPGSA,A,3,21,18,15,24,22,03,,,,,,,02.6,01.6,02.1*09
$GPGSV,3,1,12,21,85,281,43,18,65,283,46,15,52,061,38,24,46,124,39*7D
$GPGSV,3,2,12,22,26,264,38,03,18,313,35,08,15,050,,09,14,138,*76
$GPGSV,3,3,12,29,10,040,25,16,01,302,,19,00,332,,00,00,000,*7E
$GPRMC,140422.24,A,4455.6455,N,09329.4444,W,026.2,091.9,040608,001.2,E,A*2D
$GPGGA,140422.24,4455.6455,N,09329.4444,W,1,05,02.3,00283.2,M,-030.7,M,,*5C
$GPGSA,A,3,21,18,15,24,22,,,,,,,,03.6,02.3,02.7*0B
$GPGSV,3,1,12,21,85,281,42,18,65,283,46,15,52,061,37,24,46,124,39*73
$GPGSV,3,2,12,22,26,264,39,03,18,313,34,08,15,050,,09,14,138,*76
$GPGSV,3,3,12,29,10,040,26,16,01,302,,19,00,332,,00,00,000,*7D
$GPRMC,140423.24,A,4455.6454,N,09329.4342,W,026.4,091.8,040608,001.2,E,A*2B
$GPGGA,140423.24,4455.6454,N,09329.4342,W,1,05,02.3,00284.1,M,-030.7,M,,*59
$GPGSA,A,3,21,18,15,24,22,,,,,,,,03.6,02.3,02.7*0B
$GPGSV,3,1,12,21,85,281,42,18,65,283,47,15,52,061,37,24,46,124,38*73
$GPGSV,3,2,12,22,26,264,39,03,18,313,33,08,15,050,,09,14,138,*71
$GPGSV,3,3,12,29,10,040,24,16,01,302,,19,00,332,,00,00,000,*7F
$GPRMC,140424.24,A,4455.6448,N,09329.4238,W,026.0,091.6,040608,001.2,E,A*27
$GPGGA,140424.24,4455.6448,N,09329.4238,W,1,06,01.6,00284.3,M,-030.7,M,,*58
$GPGSA,A,3,21,18,15,24,22,03,,,,,,,02.6,01.6,02.1*09
$GPGSV,3,1,12,21,85,281,41,18,65,283,47,15,52,061,37,24,46,124,38*70
$GPGSV,3,2,12,22,26,264,39,03,18,313,33,08,15,050,,09,14,138,*71
$GPGSV,3,3,12,29,10,040,23,16,01,302,,19,00,332,,00,00,000,*78
$GPRMC,140425.24,A,4455.6446,N,09329.4136,W,025.2,091.7,040608,001.2,E,A*25
$GPGGA,140425.24,4455.6446,N,09329.4136,W,1,06,01.6,00283.6,M,-030.7,M,,*58
$GPGSA,A,3,21,18,15,24,22,03,,,,,,,02.6,01.6,02.1*09
$GPGSV,3,1,12,21,85,281,41,18,65,283,47,15,52,061,37,24,46,124,38*70
$GPGSV,3,2,12,22,26,264,39,03,18,313,32,08,15,050,,09,14,138,*70
$GPGSV,3,3,12,29,10,040,22,16,01,302,,19,00,332,,00,00,000,*79
$GPRMC,140426.24,A,4455.6439,N,09329.4038,W,024.8,092.6,040608,001.2,E,A*28
$GPGGA,140426.24,4455.6439,N,09329.4038,W,1,05,02.3,00284.9,M,-030.7,M,,*51
$GPGSA,A,3,21,18,15,24,22,,,,,,,,03.6,02.3,02.7*0B
$GPGSV,3,1,12,21,85,281,40,18,65,283,47,15,52,061,37,24,46,124,37*7E
$GPGSV,3,2,12,22,26,264,39,03,18,313,31,08,15,050,,09,14,138,*73
$GPGSV,3,3,12,29,10,040,22,16,01,302,,19,00,332,,00,00,000,*79
$GPRMC,140427.24,A,4455.6437,N,09329.3941,W,024.8,091.9,040608,001.2,E,A*2B
$GPGGA,140427.24,4455.6437,N,09329.3941,W,1,05,02.3,00286.0,M,-030.7,M,,*55
$GPGSA,A,3,21,18,15,24,22,,,,,,,,03.6,02.3,02.7*0B
$GPGSV,3,1,12,21,85,281,40,18,65,283,47,15,52,061,37,24,46,124,37*7E
$GPGSV,3,2,12,22,26,264,40,03,18,313,30,08,15,050,,09,14,138,*7C
$GPGSV,3,3,12,29,10,040,20,16,01,302,,19,00,332,,00,00,000,*7B
$GPRMC,140428.24,A,4455.6434,N,09329.3845,W,025.0,091.7,040608,001.2,E,A*25
$GPGGA,140428.24,4455.6434,N,09329.3845,W,1,05,05.5,00286.8,M,-030.7,M,,*55
$GPGSA,A,3,21,18,15,24,22,,,,,,,,06.1,05.5,02.7*08
$GPGSV,3,1,12,21,85,281,39,18,65,283,47,15,52,061,36,24,46,124,36*70
$GPGSV,3,2,12,22,26,264,39,03,18,313,26,08,15,050,,09,14,138,*75
$GPGSV,3,3,12,29,10,040,19,16,01,302,,19,00,332,,00,00,000,*71
$GPRMC,140429.24,A,4455.6437,N,09329.3748,W,025.1,091.7,040608,001.2,E,A*24
$GPGGA,140429.24,4455.6437,N,09329.3748,W,1,05,05.5,00287.6,M,-030.7,M,,*5A
$GPGSA,A,3,21,18,15,24,22,,,,,,,,06.2,05.5,02.8*04
$GPGSV,3,1,12,21,85,281,37,18,65,283,47,15,52,061,34,24,46,124,34*7E
$GPGSV,3,2,12,22,26,264,38,03,18,313,24,08,15,050,,09,14,138,*76
$GPGSV,3,3,12,29,10,040,19,16,01,302,,19,00,332,,00,00,000,*71
$GPRMC,140430.24,A,4455.6434,N,09329.3643,W,025.2,090.5,040608,001.2,E,A*25
$GPGGA,140430.24,4455.6434,N,09329.3643,W,1,06,01.6,00286.8,M,-030.7,M,,*50
$GPGSA,A,3,21,18,15,24,22,03,,,,,,,02.6,01.6,02.1*09
$GPGSV,3,1,12,21,85,281,38,18,65,283,47,15,52,061,34,24,46,124,36*73
$GPGSV,3,2,12,22,26,264,39,03,18,313,27,08,15,050,,09,14,138,*74
$GPGSV,3,3,12,29,10,040,22,16,01,302,,19,00,332,,00,00,000,*79
$GPRMC,140431.24,A,4455.6428,N,09329.3544,W,025.1,091.5,040608,001.2,E,A*2F
$GPGGA,140431.24,4455.6428,N,09329.3544,W,1,05,02.3,00287.9,M,-030.7,M,,*5D
$GPGSA,A,3,21,18,15,24,22,,,,,,,,03.6,02.3,02.7*0B
$GPGSV,3,1,12,21,85,281,39,18,65,283,47,15,52,061,35,24,46,124,37*72
$GPGSV,3,2,12,22,26,264,39,03,18,313,26,08,15,050,,09,14,138,*75
$GPGSV,3,3,12,29,10,040,24,16,01,302,,19,00,332,,00,00,000,*7F
$GPRMC,140432.24,A,4455.6426,N,09329.3449,W,024.8,091.9,040608,001.2,E,A*2A
$GPGGA,140432.24,4455.6426,N,09329.3449,W,1,05,02.3,00288.1,M,-030.7,M,,*5B
$GPGSA,A,3,21,18,15,24,22,,,,,,,,03.6,02.3,02.7*0B
$GPGSV,3,1,12,21,85,281,39,18,65,283,47,15,51,061,35,24,46,124,38*7E
$GPGSV,3,2,12,22,26,264,39,03,18,313,24,08,15,050,,09,14,138,*77
$GPGSV,3,3,12,29,10,040,24,16,01,302,,19,00,332,,00,00,000,*7F
$GPRMC,140433.24,A,4455.6429,N,09329.3348,W,024.4,092.0,040608,001.2,E,A*24
$GPGGA,140433.24,4455.6429,N,09329.3348,W,1,05,05.5,00288.2,M,-030.7,M,,*51
$GPGSA,A,3,21,18,15,24,22,,,,,,,,06.1,05.5,02.7*08
$GPGSV,3,1,12,21,85,281,38,18,65,283,47,15,51,061,33,24,46,124,37*76
$GPGSV,3,2,12,22,26,264,39,03,18,313,23,08,15,050,,09,14,138,*70
$GPGSV,3,3,12,29,10,040,24,16,01,302,,19,00,332,,00,00,000,*7F
$GPRMC,140434.24,A,4455.6419,N,09329.3258,W,023.2,093.7,040608,001.2,E,A*27
$GPGGA,140434.24,4455.6419,N,09329.3258,W,1,05,02.3,00289.0,M,-030.7,M,,*57
$GPGSA,A,3,21,18,15,24,22,,,,,,,,03.6,02.3,02.7*0B
$GPGSV,3,1,12,21,85,281,39,18,65,284,47,15,51,061,34,24,46,124,37*77
$GPGSV,3,2,12,22,26,264,39,03,18,313,25,08,15,050,,09,14,138,*76
$GPGSV,3,3,12,29,10,040,23,16,01,302,,19,00,332,,00,00,000,*78
$GPRMC,140435.24,A,4455.6422,N,09329.3172,W,023.1,093.3,040608,001.2,E,A*22
$GPGGA,140435.24,4455.6422,N,09329.3172,W,1,04,08.6,00290.3,M,-030.7,M,,*50
$GPGSA,A,3,21,18,15,,22,,,,,,,,09.1,08.6,03.0*09
$GPGSV,3,1,12,21,85,281,39,18,65,284,47,15,51,061,34,24,46,124,36*76
$GPGSV,3,2,12,22,26,264,39,03,18,313,25,08,15,050,,09,14,138,*76
$GPGSV,3,3,12,29,10,040,22,16,01,302,,19,00,332,,00,00,000,*79
$GPRMC,140436.24,A,4455.6422,N,09329.3085,W,022.9,093.1,040608,001.2,E,A*23
$GPGGA,140436.24,4455.6422,N,09329.3085,W,1,04,08.6,00291.8,M,-030.7,M,,*50
$GPGSA,A,3,21,18,15,,22,,,,,,,,09.1,08.6,03.0*09
$GPGSV,3,1,12,21,85,281,39,18,65,284,47,15,51,061,35,24,46,124,36*77
$GPGSV,3,2,12,22,26,264,39,03,18,313,28,08,15,050,,09,14,138,*7B
$GPGSV,3,3,12,29,10,040,22,16,01,302,,19,00,332,,00,00,000,*79
$GPRMC,140437.24,A,4455.6412,N,09329.2999,W,022.6,093.0,040608,001.2,E,A*2A
$GPGGA,140437.24,4455.6412,N,09329.2999,W,1,04,05.8,00293.1,M,-030.7,M,,*5F
$GPGSA,A,3,21,18,15,,22,,,,,,,,06.5,05.8,03.0*01
$GPGSV,3,1,12,21,85,279,38,18,65,284,47,15,51,061,34,24,46,124,35*73
$GPGSV,3,2,12,22,26,264,39,03,18,313,28,08,15,050,,09,14,138,*7B
$GPGSV,3,3,12,29,10,040,22,16,01,302,,19,00,332,,00,00,000,*79
$GPRMC,140438.24,A,4455.6406,N,09329.2912,W,022.5,092.9,040608,001.2,E,A*28
$GPGGA,140438.24,4455.6406,N,09329.2912,W,1,05,02.3,00293.9,M,-030.7,M,,*53
$GPGSA,A,3,21,18,15,24,22,,,,,,,,03.6,02.3,02.7*0B
$GPGSV,3,1,12,21,85,279,38,18,65,284,47,15,51,061,35,24,46,124,36*71
$GPGSV,3,2,12,22,26,264,39,03,18,313,28,08,15,050,,09,14,138,*7B
$GPGSV,3,3,12,29,10,040,23,16,01,302,,19,00,332,,00,00,000,*78
$GPRMC,140439.24,A,4455.6400,N,09329.2825,W,022.4,092.7,040608,001.2,E,A*25
$GPGGA,140439.24,4455.6400,N,09329.2825,W,1,05,02.3,00294.5,M,-030.7,M,,*5A
$GPGSA,A,3,21,18,15,24,22,,,,,,,,03.6,02.3,02.7*0B
$GPGSV,3,1,12,21,85,279,39,18,65,284,47,15,51,061,35,24,46,124,37*71
$GPGSV,3,2,12,22,26,264,39,03,18,313,25,08,15,050,,09,14,138,*76
$GPGSV,3,3,12,29,10,040,24,16,01,302,,19,00,332,,00,00,000,*7F
$GPRMC,140440.24,A,4455.6395,N,09329.2735,W,022.4,092.4,040608,001.2,E,A*2D
$GPGGA,140440.24,4455.6395,N,09329.2735,W,1,05,02.3,00295.1,M,-030.7,M,,*54
$GPGSA,A,3,21,18,15,24,22,,,,,,,,03.6,02.3,02.7*0B
$GPGSV,3,1,12,21,85,279,39,18,65,284,47,15,51,061,36,24,46,125,38*7C
$GPGSV,3,2,12,22,26,264,39,03,18,313,25,08,15,050,,09,14,138,*76
$GPGSV,3,3,12,29,10,040,23,16,01,302,,19,00,332,,00,00,000,*78
$GPRMC,140441.24,A,4455.6394,N,09329.2649,W,022.5,092.2,040608,001.2,E,A*20
$GPGGA,140441.24,4455.6394,N,09329.2649,W,1,05,02.3,00295.3,M,-030.7,M,,*5C
$GPGSA,A,3,21,18,15,24,22,,,,,,,,03.6,02.3,02.7*0B
$GPGSV,3,1,12,21,85,279,38,18,65,284,47,15,51,061,36,24,46,125,38*7D
$GPGSV,3,2,12,22,26,264,39,03,18,313,26,08,15,050,,09,14,138,*75
$GPGSV,3,3,12,29,10,040,24,16,01,302,,19,00,332,,00,00,000,*7F
$GPRMC,140442.24,A,4455.6389,N,09329.2560,W,022.7,092.0,040608,001.2,E,A*27
$GPGGA,140442.24,4455.6389,N,09329.2560,W,1,05,02.3,00296.2,M,-030.7,M,,*59
$GPGSA,A,3,21,18,15,24,22,,,,,,,,03.5,02.3,02.7*08
$GPGSV,3,1,12,21,85,279,38,18,65,284,47,15,51,061,36,24,46,125,38*7D
$GPGSV,3,2,12,22,26,264,38,03,18,313,26,08,15,050,,09,14,138,*74
$GPGSV,3,3,12,29,10,040,29,16,01,302,,19,00,332,,00,00,000,*72
$GPRMC,140443.24,A,4455.6378,N,09329.2469,W,022.8,092.6,040608,001.2,E,A*29
$GPGGA,140443.24,4455.6378,N,09329.2469,W,1,05,02.3,00297.4,M,-030.7,M,,*59
$GPGSA,A,3,21,18,15,24,22,,,,,,,,03.5,02.3,02.7*08
$GPGSV,3,1,12,21,85,279,38,18,65,284,47,15,51,061,36,24,46,125,37*72
$GPGSV,3,2,12,22,26,264,38,03,18,313,25,08,15,050,,09,14,138,*77
$GPGSV,3,3,12,29,10,040,29,16,01,302,,19,00,332,,00,00,000,*72
$GPRMC,140444.24,A,4455.6381,N,09329.2374,W,023.4,092.9,040608,001.2,E,A*21
$GPGGA,140444.24,4455.6381,N,09329.2374,W,1,05,02.3,00297.3,M,-030.7,M,,*54
$GPGSA,A,3,21,18,15,24,22,,,,,,,,03.5,02.3,02.7*08
$GPGSV,3,1,12,21,85,279,39,18,65,284,46,15,51,061,37,24,46,125,37*73
$GPGSV,3,2,12,22,26,264,39,03,18,313,25,08,15,050,,09,14,138,*76
$GPGSV,3,3,12,29,10,040,28,16,01,302,,19,00,332,,00,00,000,*73
$GPRMC,140445.24,A,4455.6374,N,09329.2279,W,024.2,092.8,040608,001.2,E,A*26
$GPGGA,140445.24,4455.6374,N,09329.2279,W,1,05,02.3,00298.3,M,-030.7,M,,*5C
$GPGSA,A,3,21,18,15,24,22,,,,,,,,03.5,02.3,02.7*08
$GPGSV,3,1,12,21,85,279,40,18,65,284,46,15,51,061,37,24,46,125,37*7D
$GPGSV,3,2,12,22,26,264,39,03,18,313,25,08,15,050,,09,14,138,*76
$GPGSV,3,3,12,29,10,040,27,16,01,302,,19,00,332,,00,00,000,*7C
$GPRMC,140446.24,A,4455.6367,N,09329.2179,W,024.4,092.1,040608,001.2,E,A*2B
$GPGGA,140446.24,4455.6367,N,09329.2179,W,1,06,01.6,00297.1,M,-030.7,M,,*56
$GPGSA,A,3,21,18,15,24,22,03,,,,,,,02.6,01.6,02.1*09
$GPGSV,3,1,12,21,85,279,40,18,65,284,46,15,51,061,38,24,46,125,38*7D
$GPGSV,3,2,12,22,26,264,39,03,18,313,27,08,15,050,,09,14,138,*74
$GPGSV,3,3,12,29,10,040,26,16,01,302,,19,00,332,,00,00,000,*7D
$GPRMC,140447.24,A,4455.6363,N,09329.2076,W,025.3,091.8,040608,001.2,E,A*2C
$GPGGA,140447.24,4455.6363,N,09329.2076,W,1,06,01.6,00297.5,M,-030.7,M,,*59
$GPGSA,A,3,21,18,15,24,22,03,,,,,,,02.6,01.6,02.1*09
$GPGSV,3,1,12,21,85,279,41,18,65,284,46,15,51,061,39,24,46,125,38*7D
$GPGSV,3,2,12,22,26,264,39,03,18,313,29,08,15,050,,09,14,138,*7A
$GPGSV,3,3,12,29,10,040,30,16,01,302,,19,00,332,,00,00,000,*7A
$GPRMC,140448.24,A,4455.6359,N,09329.1976,W,025.4,091.7,040608,001.2,E,A*28
$GPGGA,140448.24,4455.6359,N,09329.1976,W,1,05,02.3,00298.1,M,-030.7,M,,*5B
$GPGSA,A,3,21,18,15,24,22,,,,,,,,03.5,02.3,02.7*08
$GPGSV,3,1,12,21,85,279,41,18,65,284,46,15,51,061,39,24,46,125,38*7D
$GPGSV,3,2,12,22,26,264,39,03,18,313,29,08,15,050,,09,14,138,*7A
$GPGSV,3,3,12,29,10,040,33,16,01,302,,19,00,332,,00,00,000,*79
$GPRMC,140449.24,A,4455.6355,N,09329.1877,W,025.5,091.7,040608,001.2,E,A*24
$GPGGA,140449.24,4455.6355,N,09329.1877,W,1,06,01.6,00298.8,M,-030.7,M,,*5A
$GPGSA,A,3,21,18,15,24,22,03,,,,,,,02.6,01.6,02.1*09
$GPGSV,3,1,12,21,85,279,41,18,65,284,46,15,51,061,38,24,46,125,38*7C
$GPGSV,3,2,12,22,26,264,39,03,18,313,29,08,15,050,,09,14,138,*7A
$GPGSV,3,3,12,29,10,040,34,16,01,302,,19,00,332,,00,00,000,*7E
$GPRMC,140450.24,A,4455.6355,N,09329.1779,W,025.5,091.7,040608,001.2,E,A*2D
$GPGGA,140450.24,4455.6355,N,09329.1779,W,1,06,01.6,00300.0,M,-030.7,M,,*5B
$GPGSA,A,3,21,18,15,24,22,03,,,,,,,02.6,01.6,02.1*09
$GPGSV,3,1,12,21,85,279,42,18,65,284,46,15,51,061,38,24,46,125,39*7E
$GPGSV,3,2,12,22,26,264,39,03,18,313,30,08,15,050,,09,14,138,*72
$GPGSV,3,3,12,29,10,040,34,16,01,302,,19,00,332,,00,00,000,*7E
$GPRMC,140451.24,A,4455.6349,N,09329.1679,W,025.4,091.8,040608,001.2,E,A*2E
$GPGGA,140451.24,4455.6349,N,09329.1679,W,1,06,04.8,00300.6,M,-030.7,M,,*5B
$GPGSA,A,3,21,18,15,24,22,03,,,,,,,05.3,04.8,02.1*00
$GPGSV,3,1,12,21,85,279,42,18,65,284,46,15,51,061,37,24,46,125,39*71
$GPGSV,3,2,12,22,26,264,38,03,18,313,29,08,15,050,,09,14,138,*7B
$GPGSV,3,3,12,29,10,040,32,16,01,302,,19,00,332,,00,00,000,*78
$GPRMC,140452.24,A,4455.6344,N,09329.1579,W,025.5,091.8,040608,001.2,E,A*22
$GPGGA,140452.24,4455.6344,N,09329.1579,W,1,05,02.3,00300.7,M,-030.7,M,,*59
$GPGSA,A,3,21,18,15,24,22,,,,,,,,03.5,02.3,02.7*08
$GPGSV,3,1,12,21,85,279,42,18,65,284,45,15,51,061,37,24,46,125,39*72
$GPGSV,3,2,12,22,26,264,38,03,18,313,28,08,15,050,,09,14,138,*7A
$GPGSV,3,3,12,29,10,040,31,16,01,302,,19,00,332,,00,00,000,*7B
$GPRMC,140453.24,A,4455.6341,N,09329.1478,W,025.7,091.7,040608,001.2,E,A*2B
$GPGGA,140453.24,4455.6341,N,09329.1478,W,1,05,02.3,00300.9,M,-030.7,M,,*53
$GPGSA,A,3,21,18,15,24,22,,,,,,,,03.5,02.3,02.7*08
$GPGSV,3,1,12,21,85,279,42,18,65,284,45,15,51,061,37,24,46,125,39*72
$GPGSV,3,2,12,22,26,264,38,03,18,313,28,08,15,050,,09,14,138,*7A
$GPGSV,3,3,12,29,10,040,32,16,01,302,,19,00,332,,00,00,000,*78
$GPRMC,140454.24,A,4455.6337,N,09329.1378,W,025.9,091.6,040608,001.2,E,A*25
$GPGGA,140454.24,4455.6337,N,09329.1378,W,1,05,02.3,00300.4,M,-030.7,M,,*5F
$GPGSA,A,3,21,18,15,24,22,,,,,,,,03.5,02.3,02.7*08
$GPGSV,3,1,12,21,85,279,42,18,65,284,44,15,51,061,39,24,46,125,39*7D
$GPGSV,3,2,12,22,26,264,38,03,18,313,27,08,15,050,,09,14,138,*75
$GPGSV,3,3,12,29,10,040,31,16,01,302,,19,00,332,,00,00,000,*7B
$GPRMC,140455.24,A,4455.6330,N,09329.1276,W,025.8,091.6,040608,001.2,E,A*2D
$GPGGA,140455.24,4455.6330,N,09329.1276,W,1,05,02.3,00300.7,M,-030.7,M,,*55
$GPGSA,A,3,21,18,15,24,22,,,,,,,,03.5,02.3,02.7*08
$GPGSV,3,1,12,21,85,279,42,18,65,284,44,15,51,061,40,24,46,125,40*7D
$GPGSV,3,2,12,22,26,264,38,03,18,313,26,08,15,050,,09,14,138,*74
$GPGSV,3,3,12,29,10,040,28,16,01,302,,19,00,332,,00,00,000,*73
$GPRMC,140456.24,A,4455.6324,N,09329.1176,W,025.7,091.7,040608,001.2,E,A*26
$GPGGA,140456.24,4455.6324,N,09329.1176,W,1,05,02.3,00301.0,M,-030.7,M,,*56
$GPGSA,A,3,21,18,15,24,22,,,,,,,,03.5,02.3,02.7*08
$GPGSV,3,1,12,21,85,279,43,18,65,284,44,15,51,061,41,24,46,125,40*7D
$GPGSV,3,2,12,22,26,264,38,03,18,313,24,08,15,050,,09,14,138,*76
$GPGSV,3,3,12,29,10,040,27,16,01,302,,19,00,332,,00,00,000,*7C
$GPRMC,140457.24,A,4455.6322,N,09329.1078,W,025.6,091.8,040608,001.2,E,A*20
$GPGGA,140457.24,4455.6322,N,09329.1078,W,1,05,02.3,00299.8,M,-030.7,M,,*56
$GPGSA,A,3,21,18,15,24,22,,,,,,,,03.5,02.3,02.7*08
$GPGSV,3,1,12,21,85,279,43,18,65,284,44,15,51,061,42,24,46,125,41*7F
$GPGSV,3,2,12,22,26,264,37,03,18,313,26,08,15,050,,09,14,138,*7B
$GPGSV,3,3,12,29,10,040,29,16,01,302,,19,00,332,,00,00,000,*72
$GPRMC,140458.24,A,4455.6317,N,09329.0980,W,025.4,091.9,040608,001.2,E,A*25
$GPGGA,140458.24,4455.6317,N,09329.0980,W,1,05,02.3,00298.6,M,-030.7,M,,*5F
$GPGSA,A,3,21,18,15,24,22,,,,,,,,03.5,02.3,02.7*08
$GPGSV,3,1,12,21,85,279,43,18,65,284,44,15,51,061,42,24,46,125,41*7F
$GPGSV,3,2,12,22,26,264,36,03,18,313,26,08,15,050,,09,14,138,*7A
$GPGSV,3,3,12,29,10,040,28,16,01,302,,19,00,332,,00,00,000,*73
$GPRMC,140459.24,A,4455.6321,N,09329.0882,W,025.1,091.7,040608,001.2,E,A*29
$GPGGA,140459.24,4455.6321,N,09329.0882,W,1,06,01.6,00298.2,M,-030.7,M,,*59
$GPGSA,A,3,21,18,15,24,22,03,,,,,,,02.6,01.6,02.1*09
$GPGSV,3,1,12,21,85,279,43,18,65,284,44,15,51,061,43,24,46,125,41*7E
$GPGSV,3,2,12,22,26,264,36,03,18,313,28,08,15,050,,09,14,138,*74
$GPGSV,3,3,12,29,10,040,26,16,01,302,,19,00,332,,00,00,000,*7D
$GPRMC,140500.24,A,4455.6316,N,09329.0786,W,024.8,091.8,040608,001.2,E,A*2C
$GPGGA,140500.24,4455.6316,N,09329.0786,W,1,05,02.3,00298.0,M,-030.7,M,,*5C
$GPGSA,A,3,21,18,15,24,22,,,,,,,,03.5,02.3,02.7*08
$GPGSV,3,1,12,21,85,279,43,18,65,284,44,15,51,061,43,24,46,125,41*7E
$GPGSV,3,2,12,22,26,264,36,03,18,313,31,08,15,050,,09,14,138,*7C
$GPGSV,3,3,12,29,10,040,25,16,01,302,,19,00,332,,00,00,000,*7E
$GPRMC,140501.24,A,4455.6313,N,09329.0691,W,023.9,092.2,040608,001.2,E,A*20
$GPGGA,140501.24,4455.6313,N,09329.0691,W,1,05,02.3,00298.2,M,-030.7,M,,*5D
$GPGSA,A,3,21,18,15,24,22,,,,,,,,03.5,02.3,02.7*08
$GPGSV,3,1,12,21,85,279,43,18,65,284,44,15,51,061,43,24,46,125,41*7E
$GPGSV,3,2,12,22,26,264,36,03,18,313,30,08,15,050,,09,14,138,*7D
$GPGSV,3,3,12,29,10,040,25,16,01,302,,19,00,332,,00,00,000,*7E
$GPRMC,140502.24,A,4455.6307,N,09329.0599,W,023.7,092.2,040608,001.2,E,A*23
$GPGGA,140502.24,4455.6307,N,09329.0599,W,1,05,02.3,00298.0,M,-030.7,M,,*52
$GPGSA,A,3,21,18,15,24,22,,,,,,,,03.5,02.3,02.7*08
$GPGSV,3,1,12,21,85,279,43,18,65,284,44,15,51,061,43,24,46,125,41*7E
$GPGSV,3,2,12,22,26,264,36,03,18,313,29,08,15,050,,09,14,138,*75
$GPGSV,3,3,12,29,10,040,30,16,01,302,,19,00,332,,00,00,000,*7A
$GPRMC,140503.24,A,4455.6304,N,09329.0508,W,023.4,092.1,040608,001.2,E,A*29
$GPGGA,140503.24,4455.6304,N,09329.0508,W,1,05,02.3,00297.7,M,-030.7,M,,*50
$GPGSA,A,3,21,18,15,24,22,,,,,,,,03.5,02.3,02.7*08
$GPGSV,3,1,12,21,85,279,43,18,65,284,44,15,51,061,43,24,46,125,41*7E
$GPGSV,3,2,12,22,26,264,36,03,18,313,29,08,15,050,,09,14,138,*75
$GPGSV,3,3,12,29,10,040,32,16,01,302,,19,00,332,,00,00,000,*78
$GPRMC,140504.24,A,4455.6304,N,09329.0418,W,023.0,092.0,040608,001.2,E,A*2B
$GPGGA,140504.24,4455.6304,N,09329.0418,W,1,05,02.3,00297.1,M,-030.7,M,,*51
$GPGSA,A,3,21,18,15,24,22,,,,,,,,03.5,02.3,02.7*08
$GPGSV,3,1,12,21,85,279,43,18,65,284,44,15,51,061,42,24,46,125,41*7F
$GPGSV,3,2,12,22,26,264,36,03,18,313,27,08,15,050,,09,14,138,*7B
$GPGSV,3,3,12,29,10,040,32,16,01,302,,19,00,332,,00,00,000,*78
$GPRMC,140505.24,A,4455.6303,N,09329.0328,W,022.0,092.1,040608,001.2,E,A*29
$GPGGA,140505.24,4455.6303,N,09329.0328,W,1,05,02.3,00296.6,M,-030.7,M,,*55
$GPGSA,A,3,21,18,15,24,22,,,,,,,,03.5,02.3,02.7*08
$GPGSV,3,1,12,21,85,279,43,18,65,284,44,15,51,061,42,24,46,125,40*7E
$GPGSV,3,2,12,22,26,264,36,03,18,313,28,08,15,050,,09,14,138,*74
$GPGSV,3,3,12,29,10,040,31,16,01,302,,19,00,332,,00,00,000,*7B
$GPRMC,140506.24,A,4455.6305,N,09329.0245,W,021.1,091.8,040608,001.2,E,A*2E
$GPGGA,140506.24,4455.6305,N,09329.0245,W,1,06,01.6,00297.7,M,-030.7,M,,*5F
$GPGSA,A,3,21,18,15,24,22,03,,,,,,,02.6,01.6,02.1*09
$GPGSV,3,1,12,21,85,279,43,18,65,284,43,15,51,060,42,24,46,125,40*78
$GPGSV,3,2,12,22,26,264,36,03,18,313,31,08,15,050,,09,14,138,*7C
$GPGSV,3,3,12,29,10,040,33,16,01,302,,19,00,332,,00,00,000,*79
$GPRMC,140507.24,A,4455.6305,N,09329.0168,W,020.0,091.5,040608,001.2,E,A*2E
$GPGGA,140507.24,4455.6305,N,09329.0168,W,1,06,01.6,00298.7,M,-030.7,M,,*5D
$GPGSA,A,3,21,18,15,24,22,03,,,,,,,02.6,01.6,02.1*09
$GPGSV,3,1,12,21,85,279,43,18,65,284,43,15,51,060,42,24,46,125,40*78
$GPGSV,3,2,12,22,26,264,36,03,18,313,32,08,15,050,,09,14,138,*7F
$GPGSV,3,3,12,29,10,040,31,16,00,301,,19,00,332,,00,00,000,*79
$GPRMC,140508.24,A,4455.6303,N,09329.0095,W,018.9,091.4,040608,001.2,E,A*27
$GPGGA,140508.24,4455.6303,N,09329.0095,W,1,05,02.2,00298.6,M,-030.7,M,,*52
$GPGSA,A,3,21,18,15,24,22,,,,,,,,03.5,02.2,02.7*09
$GPGSV,3,1,12,21,85,279,43,18,65,284,43,15,51,060,43,24,46,125,40*79
$GPGSV,3,2,12,22,26,264,36,03,18,313,31,08,15,050,,09,14,138,*7C
$GPGSV,3,3,12,29,10,040,29,16,00,301,,19,00,332,,00,00,000,*70
$GPRMC,140509.24,A,4455.6300,N,09329.0023,W,018.5,091.5,040608,001.2,E,A*25
$GPGGA,140509.24,4455.6300,N,09329.0023,W,1,05,02.2,00298.4,M,-030.7,M,,*5F
$GPGSA,A,3,21,18,15,24,22,,,,,,,,03.5,02.2,02.7*09
$GPGSV,3,1,12,21,85,279,43,18,65,284,43,15,51,060,43,24,46,125,40*79
$GPGSV,3,2,12,22,26,264,36,03,18,313,30,08,15,050,,09,14,138,*7D
$GPGSV,3,3,12,29,10,040,29,16,00,301,,19,00,332,,00,00,000,*70
$GPRMC,140510.24,A,4455.6298,N,09328.9951,W,018.1,091.6,040608,001.2,E,A*2E
$GPGGA,140510.24,4455.6298,N,09328.9951,W,1,05,02.2,00298.1,M,-030.7,M,,*56
$GPGSA,A,3,21,18,15,24,22,,,,,,,,03.5,02.2,02.7*09
$GPGSV,3,1,12,21,85,279,43,18,65,284,43,15,51,060,43,24,46,125,40*79
$GPGSV,3,2,12,22,26,264,36,03,18,313,29,08,15,050,,09,14,138,*75
$GPGSV,3,3,12,29,10,040,31,16,00,301,,19,00,332,,00,00,000,*79
$GPRMC,140511.24,A,4455.6294,N,09328.9884,W,016.6,092.0,040608,001.2,E,A*26
$GPGGA,140511.24,4455.6294,N,09328.9884,W,1,05,02.2,00298.3,M,-030.7,M,,*50
$GPGSA,A,3,21,18,15,24,22,,,,,,,,03.5,02.2,02.7*09
$GPGSV,3,1,12,21,86,276,43,18,65,284,43,15,51,060,43,24,46,125,40*75
$GPGSV,3,2,12,22,26,264,36,03,18,313,29,08,15,050,,09,14,138,*75
$GPGSV,3,3,12,29,10,040,31,16,00,301,,19,00,332,,00,00,000,*79
$GPRMC,140512.24,A,4455.6292,N,09328.9825,W,014.5,092.3,040608,001.2,E,A*2A
$GPGGA,140512.24,4455.6292,N,09328.9825,W,1,05,02.2,00297.9,M,-030.7,M,,*5B
$GPGSA,A,3,21,18,15,24,22,,,,,,,,03.5,02.2,02.7*09
$GPGSV,3,1,12,21,86,276,43,18,65,284,43,15,51,060,43,24,46,125,40*75
$GPGSV,3,2,12,22,26,264,36,03,18,313,29,08,15,050,,09,14,138,*75
$GPGSV,3,3,12,29,10,040,33,16,00,301,,19,00,332,,00,00,000,*7B
$GPRMC,140513.24,A,4455.6288,N,09328.9777,W,011.2,091.9,040608,001.2,E,A*23
$GPGGA,140513.24,4455.6288,N,09328.9777,W,1,05,02.2,00298.3,M,-030.7,M,,*5C
$GPGSA,A,3,21,18,15,24,22,,,,,,,,03.5,02.2,02.7*09
$GPGSV,3,1,12,21,86,276,43,18,65,284,42,15,51,060,43,24,46,125,40*74
$GPGSV,3,2,12,22,26,264,35,03,18,313,27,08,15,050,,09,14,138,*78
$GPGSV,3,3,12,29,10,040,34,16,00,301,,19,00,332,,00,00,000,*7C
$GPRMC,140514.24,A,4455.6286,N,09328.9741,W,009.3,091.9,040608,001.2,E,A*27
$GPGGA,140514.24,4455.6286,N,09328.9741,W,1,05,02.2,00298.9,M,-030.7,M,,*5A
$GPGSA,A,3,21,18,15,24,22,,,,,,,,03.5,02.2,02.7*09
$GPGSV,3,1,12,21,86,276,43,18,65,284,42,15,51,060,43,24,45,125,40*77
$GPGSV,3,2,12,22,26,264,35,03,18,313,26,08,15,050,,09,14,138,*79
$GPGSV,3,3,12,29,10,040,32,16,00,301,,19,00,332,,00,00,000,*7A
$GPRMC,140515.24,A,4455.6288,N,09328.9721,W,006.1,091.9,040608,001.2,E,A*23
$GPGGA,140515.24,4455.6288,N,09328.9721,W,1,04,03.0,00300.1,M,-030.7,M,,*59
$GPGSA,A,3,21,18,15,24,,,,,,,,,09.0,03.0,08.5*0D
$GPGSV,3,1,12,21,86,276,43,18,65,284,42,15,51,060,43,24,45,125,39*79
$GPGSV,3,2,12,22,26,264,33,03,18,313,25,08,15,050,,09,14,138,*7C
$GPGSV,3,3,12,29,10,040,30,16,00,301,,19,00,332,,00,00,000,*78
$GPRMC,140516.24,A,4455.6290,N,09328.9716,W,003.6,091.7,040608,001.2,E,A*21
$GPGGA,140516.24,4455.6290,N,09328.9716,W,1,05,02.2,00299.8,M,-030.7,M,,*5D
$GPGSA,A,3,21,18,15,24,22,,,,,,,,03.5,02.2,02.7*09
$GPGSV,3,1,12,21,86,276,42,18,65,284,42,15,51,060,43,24,45,125,39*78
$GPGSV,3,2,12,22,26,264,31,03,18,313,25,08,15,050,,09,14,138,*7E
$GPGSV,3,3,12,29,10,040,29,16,00,301,,19,00,332,,00,00,000,*70
$GPRMC,140517.24,A,4455.6289,N,09328.9714,W,004.0,091.7,040608,001.2,E,A*2B
$GPGGA,140517.24,4455.6289,N,09328.9714,W,1,06,01.6,00299.9,M,-030.7,M,,*53
$GPGSA,A,3,21,18,15,24,22,03,,,,,,,02.6,01.6,02.1*09
$GPGSV,3,1,12,21,86,276,41,18,65,284,43,15,51,060,43,24,45,125,38*7B
$GPGSV,3,2,12,22,26,264,32,03,18,313,27,08,15,050,,09,14,138,*7F
$GPGSV,3,3,12,29,10,040,27,16,00,301,,19,00,332,,00,00,000,*7E
$GPRMC,140518.24,A,4455.6291,N,09328.9697,W,007.4,091.4,040608,001.2,E,A*23
$GPGGA,140518.24,4455.6291,N,09328.9697,W,1,05,02.2,00300.1,M,-030.7,M,,*52
$GPGSA,A,3,21,18,15,24,22,,,,,,,,03.5,02.2,02.7*09
$GPGSV,3,1,12,21,86,276,41,18,65,284,43,15,51,060,42,24,45,125,37*75
$GPGSV,3,2,12,22,26,264,33,03,18,313,28,08,15,050,,09,14,138,*71
$GPGSV,3,3,12,29,10,040,28,16,00,301,,19,00,332,,00,00,000,*71
$GPRMC,140519.24,A,4455.6293,N,09328.9658,W,011.5,091.5,040608,001.2,E,A*24
$GPGGA,140519.24,4455.6293,N,09328.9658,W,1,05,02.2,00299.3,M,-030.7,M,,*51
$GPGSA,A,3,21,18,15,24,22,,,,,,,,03.5,02.2,02.7*09
$GPGSV,3,1,12,21,86,276,41,18,65,284,44,15,51,060,41,24,45,125,37*71
$GPGSV,3,2,12,22,26,264,34,03,18,313,30,08,15,050,,09,14,138,*7F
$GPGSV,3,3,12,29,09,040,30,16,00,301,,19,00,332,,00,00,000,*70
$GPRMC,140520.24,A,4455.6290,N,09328.9608,W,014.7,091.2,040608,001.2,E,A*28
$GPGGA,140520.24,4455.6290,N,09328.9608,W,1,06,01.6,00298.1,M,-030.7,M,,*5A
$GPGSA,A,3,21,18,15,24,22,03,,,,,,,02.6,01.6,02.1*09
$GPGSV,3,1,12,21,86,276,40,18,65,284,45,15,51,060,40,24,45,125,37*70
$GPGSV,3,2,12,22,26,264,35,03,18,313,30,08,15,050,,09,14,138,*7E
$GPGSV,3,3,12,29,09,040,34,16,00,301,,19,00,332,,00,00,000,*74
$GPRMC,140521.24,A,4455.6293,N,09328.9544,W,015.1,090.5,040608,001.2,E,A*20
$GPGGA,140521.24,4455.6293,N,09328.9544,W,1,06,01.6,00297.0,M,-030.7,M,,*5D
$GPGSA,A,3,21,18,15,24,22,03,,,,,,,02.6,01.6,02.1*09
$GPGSV,3,1,12,21,86,276,41,18,65,284,45,15,51,060,40,24,45,125,37*71
$GPGSV,3,2,12,22,26,264,36,03,18,313,31,08,15,050,,09,14,138,*7C
$GPGSV,3,3,12,29,09,040,35,16,00,301,,19,00,332,,00,00,000,*75
$GPRMC,140522.24,A,4455.6291,N,09328.9470,W,016.0,090.2,040608,001.2,E,A*22
$GPGGA,140522.24,4455.6291,N,09328.9470,W,1,06,01.6,00295.7,M,-030.7,M,,*5F
$GPGSA,A,3,21,18,15,24,22,03,,,,,,,02.6,01.6,02.1*09
$GPGSV,3,1,12,21,86,276,42,18,65,284,45,15,51,060,41,24,45,125,36*72
$GPGSV,3,2,12,22,26,264,37,03,18,313,32,08,15,050,,09,14,138,*7E
$GPGSV,3,3,12,29,09,040,35,16,00,301,,19,00,332,,00,00,000,*75
$GPRMC,140523.24,A,4455.6293,N,09328.9385,W,021.8,089.9,040608,001.2,E,A*23
$GPGGA,140523.24,4455.6293,N,09328.9385,W,1,06,01.6,00295.7,M,-030.7,M,,*51
$GPGSA,A,3,21,18,15,24,22,03,,,,,,,02.6,01.6,02.1*09
$GPGSV,3,1,12,21,86,276,42,18,65,284,44,15,51,060,42,24,45,125,35*73
$GPGSV,3,2,12,22,26,264,37,03,18,313,34,08,15,050,,09,14,138,*78
$GPGSV,3,3,12,29,09,040,33,16,00,301,,19,00,332,,00,00,000,*73
$GPRMC,140524.24,A,4455.6298,N,09328.9300,W,023.0,090.1,040608,001.2,E,A*28
$GPGGA,140524.24,4455.6298,N,09328.9300,W,1,05,02.8,00295.8,M,-030.7,M,,*51
$GPGSA,A,3,21,18,15,,22,03,,,,,,,04.1,02.8,03.0*03
$GPGSV,3,1,12,21,86,276,42,18,65,284,44,15,51,060,42,24,45,125,35*73
$GPGSV,3,2,12,22,26,264,37,03,18,313,36,08,15,050,,09,14,138,*7A
$GPGSV,3,3,12,29,09,040,30,16,00,301,,19,00,332,,00,00,000,*70
$GPRMC,140525.24,A,4455.6296,N,09328.9207,W,023.3,090.2,040608,001.2,E,A*21
$GPGGA,140525.24,4455.6296,N,09328.9207,W,1,06,01.6,00295.6,M,-030.7,M,,*58
$GPGSA,A,3,21,18,15,24,22,03,,,,,,,02.6,01.6,02.1*09
$GPGSV,3,1,12,21,86,276,43,18,65,284,44,15,51,060,42,24,45,125,35*72
$GPGSV,3,2,12,22,26,264,37,03,18,313,36,08,15,050,,09,14,138,*7A
$GPGSV,3,3,12,29,09,040,30,16,00,301,,19,00,332,,00,00,000,*70
$GPRMC,140526.24,A,4455.6293,N,09328.9111,W,024.2,090.2,040608,001.2,E,A*25
$GPGGA,140526.24,4455.6293,N,09328.9111,W,1,05,02.2,00295.4,M,-030.7,M,,*5C
$GPGSA,A,3,21,18,15,24,22,,,,,,,,03.5,02.2,02.7*09
$GPGSV,3,1,12,21,86,276,43,18,65,284,44,15,51,060,43,24,45,125,35*73
$GPGSV,3,2,12,22,26,264,38,03,18,313,34,08,15,050,,09,14,138,*77
$GPGSV,3,3,12,29,09,040,33,16,00,301,,19,00,332,,00,00,000,*73
$GPRMC,140527.24,A,4455.6293,N,09328.9017,W,024.4,089.4,040608,001.2,E,A*2B
$GPGGA,140527.24,4455.6293,N,09328.9017,W,1,06,01.6,00294.4,M,-030.7,M,,*5F
$GPGSA,A,3,21,18,15,24,22,03,,,,,,,02.6,01.6,02.1*09
$GPGSV,3,1,12,21,86,276,43,18,65,284,44,15,51,060,43,24,45,125,35*73
$GPGSV,3,2,12,22,26,264,38,03,18,313,34,08,15,050,,09,14,138,*77
$GPGSV,3,3,12,29,09,040,32,16,00,301,,19,00,332,,00,00,000,*72
$GPRMC,140528.24,A,4455.6291,N,09328.8917,W,025.6,089.7,040608,001.2,E,A*2E
$GPGGA,140528.24,4455.6291,N,09328.8917,W,1,05,02.2,00294.2,M,-030.7,M,,*58
$GPGSA,A,3,21,18,15,24,22,,,,,,,,03.5,02.2,02.7*09
$GPGSV,3,1,12,21,86,276,43,18,65,284,44,15,51,060,43,24,45,125,35*73
$GPGSV,3,2,12,22,26,264,38,03,18,313,33,08,15,050,,09,14,138,*70
$GPGSV,3,3,12,29,09,040,32,16,00,301,,19,00,332,,00,00,000,*72
$GPRMC,140529.24,A,4455.6295,N,09328.8810,W,025.9,089.9,040608,001.2,E,A*2C
$GPGGA,140529.24,4455.6295,N,09328.8810,W,1,06,01.6,00292.1,M,-030.7,M,,*5A
$GPGSA,A,3,21,18,15,24,22,03,,,,,,,02.6,01.6,02.1*09
$GPGSV,3,1,12,21,86,276,43,18,65,284,44,15,51,060,43,24,45,125,35*73
$GPGSV,3,2,12,22,26,264,38,03,18,312,35,08,15,050,,09,14,138,*77
$GPGSV,3,3,12,29,09,040,30,16,00,301,,19,00,332,,00,00,000,*70
$GPRMC,140530.24,A,4455.6299,N,09328.8707,W,026.9,089.8,040608,001.2,E,A*23
$GPGGA,140530.24,4455.6299,N,09328.8707,W,1,05,02.2,00292.2,M,-030.7,M,,*50
$GPGSA,A,3,21,18,15,24,22,,,,,,,,03.5,02.2,02.7*09
$GPGSV,3,1,12,21,86,276,43,18,65,284,44,15,51,060,43,24,45,125,35*73
$GPGSV,3,2,12,22,26,264,38,03,18,312,34,08,15,050,,09,14,138,*76
$GPGSV,3,3,12,29,09,040,28,16,00,301,,19,00,332,,00,00,000,*79
$GPRMC,140531.24,A,4455.6299,N,09328.8597,W,027.0,089.7,040608,001.2,E,A*2E
$GPGGA,140531.24,4455.6299,N,09328.8597,W,1,06,01.6,00290.8,M,-030.7,M,,*56
$GPGSA,A,3,21,18,15,24,22,03,,,,,,,02.6,01.6,02.1*09
$GPGSV,3,1,12,21,86,276,43,18,65,284,44,15,51,060,43,24,45,125,35*73
$GPGSV,3,2,12,22,26,264,38,03,18,312,34,08,15,050,,09,14,138,*76
$GPGSV,3,3,12,29,09,040,30,16,00,301,,19,00,332,,00,00,000,*70
$GPRMC,140532.24,A,4455.6297,N,09328.8489,W,028.4,089.7,040608,001.2,E,A*26
$GPGGA,140532.24,4455.6297,N,09328.8489,W,1,05,02.2,00290.9,M,-030.7,M,,*50
$GPGSA,A,3,21,18,15,24,22,,,,,,,,03.5,02.2,02.7*09
$GPGSV,3,1,12,21,86,276,43,18,65,284,44,15,51,060,43,24,45,125,35*73
$GPGSV,3,2,12,22,26,264,38,03,18,312,32,08,15,050,,09,14,138,*70
$GPGSV,3,3,12,29,09,040,29,16,00,301,,19,00,332,,00,00,000,*78
$GPRMC,140533.24,A,4455.6295,N,09328.8376,W,028.6,089.8,040608,001.2,E,A*2F
$GPGGA,140533.24,4455.6295,N,09328.8376,W,1,06,01.6,00290.1,M,-030.7,M,,*58
$GPGSA,A,3,21,18,15,24,,22,03,,,,,,02.6,01.6,02.1*09
$GPGSV,3,1,12,21,86,276,43,18,65,284,44,15,51,060,43,24,45,125,36*70
$GPGSV,3,2,12,06,28,300,,22,26,264,35,03,18,312,37,08,15,050,*71
$GPGSV,3,3,12,09,14,138,,29,09,040,30,16,00,301,,00,00,000,*7C
$GPRMC,140534.24,A,4455.6298,N,09328.8264,W,028.4,089.8,040608,001.2,E,A*25
$GPGGA,140534.24,4455.6298,N,09328.8264,W,1,06,01.6,00288.7,M,-030.7,M,,*5F
$GPGSA,A,3,21,18,15,24,,22,03,,,,,,02.6,01.6,02.1*09
$GPGSV,3,1,12,21,86,276,43,18,65,284,44,15,51,060,42,24,45,125,36*71
$GPGSV,3,2,12,06,28,300,,22,26,264,36,03,18,312,36,08,15,050,*73
$GPGSV,3,3,12,09,14,138,,29,09,040,29,16,00,301,,00,00,000,*74
$GPRMC,140535.24,A,4455.6298,N,09328.8154,W,027.1,089.7,040608,001.2,E,A*21
$GPGGA,140535.24,4455.6298,N,09328.8154,W,1,05,02.2,00289.0,M,-030.7,M,,*5C
$GPGSA,A,3,21,18,15,24,,22,,,,,,,03.5,02.2,02.7*09
$GPGSV,3,1,12,21,86,276,43,18,65,284,45,15,51,060,41,24,45,125,36*73
$GPGSV,3,2,12,06,28,300,40,22,26,264,37,03,18,312,33,08,15,050,*73
$GPGSV,3,3,12,09,15,138,,29,09,040,29,16,00,301,,00,00,000,*75
$GPRMC,140536.24,A,4455.6304,N,09328.8044,W,026.7,089.6,040608,001.2,E,A*20
$GPGGA,140536.24,4455.6304,N,09328.8044,W,1,06,01.6,00288.2,M,-030.7,M,,*5C
$GPGSA,A,3,21,18,15,24,,22,03,,,,,,02.6,01.6,02.1*09
$GPGSV,3,1,12,21,86,276,42,18,65,284,45,15,51,060,40,24,45,125,35*70
$GPGSV,3,2,12,06,28,300,40,22,26,264,37,03,18,312,34,08,15,050,*74
$GPGSV,3,3,12,09,15,138,,29,09,040,30,16,00,301,,00,00,000,*7D
$GPRMC,140537.24,A,4455.6307,N,09328.7944,W,026.4,089.5,040608,001.2,E,A*24
$GPGGA,140537.24,4455.6307,N,09328.7944,W,1,05,02.2,00288.5,M,-030.7,M,,*5B
$GPGSA,A,3,21,18,15,24,,22,,,,,,,03.5,02.2,02.7*09
$GPGSV,3,1,12,21,86,276,42,18,65,284,46,15,51,060,40,24,45,125,35*73
$GPGSV,3,2,12,06,28,300,40,22,26,264,37,03,18,312,33,08,15,050,*73
$GPGSV,3,3,12,09,15,138,,29,09,040,31,16,00,301,,00,00,000,*7C
$GPRMC,140538.24,A,4455.6301,N,09328.7848,W,026.0,089.5,040608,001.2,E,A*24
$GPGGA,140538.24,4455.6301,N,09328.7848,W,1,06,01.6,00289.1,M,-030.7,M,,*5E
$GPGSA,A,3,21,18,15,24,,22,03,,,,,,02.6,01.6,02.1*09
$GPGSV,3,1,12,21,86,276,42,18,65,284,46,15,51,060,40,24,45,125,35*73
$GPGSV,3,2,12,06,28,300,40,22,26,264,38,03,18,312,33,08,15,050,*7C
$GPGSV,3,3,12,09,15,138,,29,09,040,31,16,00,301,,00,00,000,*7C
$GPRMC,140539.24,A,4455.6301,N,09328.7746,W,025.2,089.7,040608,001.2,E,A*27
$GPGGA,140539.24,4455.6301,N,09328.7746,W,1,06,01.6,00289.4,M,-030.7,M,,*5B
$GPGSA,A,3,21,18,15,24,,22,03,,,,,,02.6,01.6,02.1*09
$GPGSV,3,1,12,21,86,276,42,18,65,284,46,15,51,060,40,24,45,125,36*70
$GPGSV,3,2,12,06,28,300,39,22,26,264,38,03,18,312,34,08,15,050,*75
$GPGSV,3,3,12,09,15,138,,29,09,040,32,16,00,301,,00,00,000,*7F
$GPRMC,140540.24,A,4455.6303,N,09328.7646,W,025.1,089.8,040608,001.2,E,A*26
$GPGGA,140540.24,4455.6303,N,09328.7646,W,1,05,02.2,00289.5,M,-030.7,M,,*53
$GPGSA,A,3,21,18,15,24,,22,,,,,,,03.5,02.2,02.7*09
$GPGSV,3,1,12,21,86,276,43,18,65,284,46,15,51,060,39,24,45,125,37*7E
$GPGSV,3,2,12,06,28,300,39,22,26,264,38,03,18,312,33,08,15,050,*72
$GPGSV,3,3,12,09,15,138,,29,09,040,31,16,00,301,,00,00,000,*7C
$GPRMC,140541.24,A,4455.6301,N,09328.7549,W,025.1,089.8,040608,001.2,E,A*29
$GPGGA,140541.24,4455.6301,N,09328.7549,W,1,05,02.2,00289.6,M,-030.7,M,,*5F
$GPGSA,A,3,21,18,15,24,,22,,,,,,,03.5,02.2,02.7*09
$GPGSV,3,1,12,21,86,276,43,18,65,284,46,15,51,060,39,24,45,125,37*7E
$GPGSV,3,2,12,06,28,300,37,22,26,264,39,03,18,312,31,08,15,050,*7F
$GPGSV,3,3,12,09,15,138,,29,09,040,28,16,00,301,,00,00,000,*74
$GPRMC,140542.24,A,4455.6303,N,09328.7454,W,025.1,089.7,040608,001.2,E,A*2A
$GPGGA,140542.24,4455.6303,N,09328.7454,W,1,06,01.6,00290.8,M,-030.7,M,,*51
$GPGSA,A,3,21,18,15,24,,22,03,,,,,,02.6,01.6,02.1*09
$GPGSV,3,1,12,21,86,276,43,18,66,285,46,15,51,060,40,24,45,125,36*73
$GPGSV,3,2,12,06,28,300,34,22,26,264,39,03,18,312,31,08,15,050,*7C
$GPGSV,3,3,12,09,15,138,,29,09,040,25,16,00,301,,00,00,000,*79
$GPRMC,140543.24,A,4455.6305,N,09328.7360,W,025.0,089.8,040608,001.2,E,A*23
$GPGGA,140543.24,4455.6305,N,09328.7360,W,1,06,01.6,00294.1,M,-030.7,M,,*5B
$GPGSA,A,3,21,18,15,24,,22,03,,,,,,02.6,01.6,02.1*09
$GPGSV,3,1,12,21,86,276,43,18,66,285,47,15,51,060,40,24,45,125,36*72
$GPGSV,3,2,12,06,28,300,32,22,26,264,39,03,18,312,31,08,15,050,*7A
$GPGSV,3,3,12,09,15,138,,29,09,040,25,16,00,301,,00,00,000,*79
$GPRMC,140544.24,A,4455.6308,N,09328.7263,W,025.1,089.9,040608,001.2,E,A*2B
$GPGGA,140544.24,4455.6308,N,09328.7263,W,1,06,01.6,00294.3,M,-030.7,M,,*51
$GPGSA,A,3,21,18,15,24,,22,03,,,,,,02.6,01.6,02.1*09
$GPGSV,3,1,12,21,86,276,42,18,66,285,47,15,51,060,39,24,45,125,36*7D
$GPGSV,3,2,12,06,28,300,34,22,26,264,40,03,18,312,32,08,15,050,*71
$GPGSV,3,3,12,09,15,138,,29,09,040,26,16,00,301,,00,00,000,*7A
$GPRMC,140545.24,A,4455.6308,N,09328.7166,W,025.1,089.5,040608,001.2,E,A*20
$GPGGA,140545.24,4455.6308,N,09328.7166,W,1,05,02.2,00295.9,M,-030.7,M,,*59
$GPGSA,A,3,21,18,15,24,,22,,,,,,,03.5,02.2,02.7*09
$GPGSV,3,1,12,21,86,273,41,18,66,285,47,15,51,060,38,24,45,125,36*7A
$GPGSV,3,2,12,06,28,300,35,22,26,264,40,03,18,312,31,08,15,050,*73
$GPGSV,3,3,12,09,15,138,,29,09,040,25,16,00,301,,00,00,000,*79
$GPRMC,140546.24,A,4455.6308,N,09328.7066,W,025.3,089.5,040608,001.2,E,A*20
$GPGGA,140546.24,4455.6308,N,09328.7066,W,1,05,02.2,00296.3,M,-030.7,M,,*52
$GPGSA,A,3,21,18,15,24,,22,,,,,,,03.5,02.2,02.7*09
$GPGSV,3,1,12,21,86,273,40,18,66,285,47,15,51,060,36,24,45,125,36*75
$GPGSV,3,2,12,06,28,300,34,22,26,265,40,03,18,312,30,08,15,050,*72
$GPGSV,3,3,12,09,15,138,,29,09,040,25,16,00,301,,00,00,000,*79
$GPRMC,140547.24,A,4455.6313,N,09328.6963,W,025.3,089.6,040608,001.2,E,A*25
$GPGGA,140547.24,4455.6313,N,09328.6963,W,1,06,01.6,00296.4,M,-030.7,M,,*57
$GPGSA,A,3,21,18,15,24,,22,03,,,,,,02.6,01.6,02.1*09
$GPGSV,3,1,12,21,86,273,40,18,66,285,47,15,51,060,35,24,45,125,36*76
$GPGSV,3,2,12,06,28,300,32,22,26,265,40,03,18,312,33,08,15,050,*77
$GPGSV,3,3,12,09,15,138,,29,09,040,24,16,00,301,,00,00,000,*78
$GPRMC,140548.24,A,4455.6314,N,09328.6864,W,025.0,089.8,040608,001.2,E,A*26
$GPGGA,140548.24,4455.6314,N,09328.6864,W,1,06,01.6,00296.8,M,-030.7,M,,*55
$GPGSA,A,3,21,18,15,24,,22,03,,,,,,02.6,01.6,02.1*09
$GPGSV,3,1,12,21,86,273,40,18,66,285,47,15,51,060,35,24,45,125,36*76
$GPGSV,3,2,12,06,28,300,29,22,26,265,40,03,18,312,35,08,15,050,*7B
$GPGSV,3,3,12,09,15,138,,29,09,040,26,16,00,301,,00,00,000,*7A
$GPRMC,140549.24,A,4455.6315,N,09328.6769,W,023.8,088.9,040608,001.2,E,A*2A
$GPGGA,140549.24,4455.6315,N,09328.6769,W,1,05,02.1,00298.2,M,-030.7,M,,*54
$GPGSA,A,3,21,18,,24,,22,03,,,,,,03.0,02.1,02.1*0E
$GPGSV,3,1,12,21,86,273,41,18,66,285,47,15,51,060,33,24,45,125,36*71
$GPGSV,3,2,12,06,28,300,28,22,26,265,40,03,18,312,34,08,15,050,*7B
$GPGSV,3,3,12,09,15,138,,29,09,040,28,16,00,301,,00,00,000,*74
$GPRMC,140550.24,A,4455.6310,N,09328.6678,W,023.6,088.9,040608,001.2,E,A*28
$GPGGA,140550.24,4455.6310,N,09328.6678,W,1,05,02.2,00300.2,M,-030.7,M,,*5B
$GPGSA,A,3,21,18,15,24,,22,,,,,,,03.5,02.2,02.7*09
$GPGSV,3,1,12,21,86,273,40,18,66,285,47,15,51,060,33,24,45,125,36*70
$GPGSV,3,2,12,06,28,300,27,22,26,265,39,03,18,312,34,08,15,050,*7A
$GPGSV,3,3,12,09,15,138,,29,09,040,28,16,00,301,,00,00,000,*74
$GPRMC,140551.24,A,4455.6305,N,09328.6588,W,023.6,089.2,040608,001.2,E,A*2B
$GPGGA,140551.24,4455.6305,N,09328.6588,W,1,05,02.2,00302.8,M,-030.7,M,,*5A
$GPGSA,A,3,21,18,15,24,,22,,,,,,,03.5,02.2,02.7*09
$GPGSV,3,1,12,21,86,273,39,18,66,285,47,15,51,060,34,24,45,125,36*79
$GPGSV,3,2,12,06,28,300,30,22,26,265,39,03,18,312,34,08,15,050,*7C
$GPGSV,3,3,12,09,15,138,,29,09,040,31,16,00,301,,00,00,000,*7C
$GPRMC,140552.24,A,4455.6301,N,09328.6496,W,023.8,089.6,040608,001.2,E,A*28
$GPGGA,140552.24,4455.6301,N,09328.6496,W,1,06,01.6,00302.8,M,-030.7,M,,*57
$GPGSA,A,3,21,18,15,24,,22,03,,,,,,02.6,01.6,02.1*09
$GPGSV,3,1,12,21,86,273,39,18,66,285,47,15,51,060,35,24,45,125,36*78
$GPGSV,3,2,12,06,28,300,33,22,26,265,40,03,18,312,36,08,15,050,*73
$GPGSV,3,3,12,09,15,138,,29,09,040,33,16,00,301,,00,00,000,*7E
$GPRMC,140553.24,A,4455.6307,N,09328.6404,W,023.8,089.9,040608,001.2,E,A*2B
$GPGGA,140553.24,4455.6307,N,09328.6404,W,1,05,02.8,00303.5,M,-030.7,M,,*59
$GPGSA,A,3,21,18,15,,,22,03,,,,,,04.1,02.8,03.0*03
$GPGSV,3,1,12,21,86,273,39,18,66,285,47,15,51,060,35,24,45,125,34*7A
$GPGSV,3,2,12,06,28,300,36,22,26,265,40,03,18,312,37,08,15,050,*77
$GPGSV,3,3,12,09,15,138,,29,15,185,32,16,00,301,,00,00,000,*7A
$GPRMC,140554.24,A,4455.6309,N,09328.6307,W,024.6,089.9,040608,001.2,E,A*2F
$GPGGA,140554.24,4455.6309,N,09328.6307,W,1,06,01.6,00302.5,M,-030.7,M,,*5B
$GPGSA,A,3,21,18,15,24,,22,03,,,,,,02.6,01.6,02.1*09
$GPGSV,3,1,12,21,86,273,40,18,66,285,47,15,51,060,36,24,45,125,34*77
$GPGSV,3,2,12,06,28,300,37,22,26,265,39,03,18,312,38,08,15,050,*77
$GPGSV,3,3,12,09,15,138,,29,15,185,30,16,00,301,,00,00,000,*78
$GPRMC,140555.24,A,4455.6313,N,09328.6210,W,024.9,089.8,040608,001.2,E,A*2C
$GPGGA,140555.24,4455.6313,N,09328.6210,W,1,06,01.6,00301.9,M,-030.7,M,,*59
$GPGSA,A,3,21,18,15,24,,22,03,,,,,,02.6,01.6,02.1*09
$GPGSV,3,1,12,21,86,273,41,18,66,285,46,15,51,060,38,24,45,125,34*79
$GPGSV,3,2,12,06,28,300,36,22,26,265,38,03,18,312,37,29,15,185,25*75
$GPGSV,3,3,12,08,15,050,,09,15,138,,16,00,301,,00,00,000,*71
$GPRMC,140556.24,A,4455.6315,N,09328.6111,W,025.3,089.7,040608,001.2,E,A*2F
$GPGGA,140556.24,4455.6315,N,09328.6111,W,1,05,02.2,00301.5,M,-030.7,M,,*56
$GPGSA,A,3,21,18,15,24,,22,,,,,,,03.5,02.2,02.7*09
$GPGSV,3,1,12,21,86,273,41,18,66,285,45,15,51,060,39,24,45,125,34*7B
$GPGSV,3,2,12,06,28,300,33,22,26,265,37,03,18,312,34,29,15,185,24*7D
$GPGSV,3,3,12,08,15,050,,09,15,138,,16,00,301,,00,00,000,*71
$GPRMC,140557.24,A,4455.6313,N,09328.6014,W,025.6,089.7,040608,001.2,E,A*29
$GPGGA,140557.24,4455.6313,N,09328.6014,W,1,04,03.0,00298.4,M,-030.7,M,,*57
$GPGSA,A,3,21,18,15,24,,,,,,,,,09.0,03.0,08.5*0D
$GPGSV,3,1,12,21,86,273,41,18,66,285,45,15,51,060,38,24,45,125,35*7B
$GPGSV,3,2,12,06,28,300,33,22,26,265,35,03,18,312,32,29,15,185,23*7E
$GPGSV,3,3,12,08,15,050,,09,15,138,,16,00,301,,00,00,000,*71
$GPRMC,140558.24,A,4455.6308,N,09328.5915,W,026.8,089.7,040608,001.2,E,A*2A
$GPGGA,140558.24,4455.6308,N,09328.5915,W,1,04,03.0,00296.3,M,-030.7,M,,*50
$GPGSA,A,3,21,18,15,24,,,,,,,,,09.0,03.0,08.5*0D
$GPGSV,3,1,12,21,86,273,42,18,66,285,45,15,51,060,38,24,45,125,36*7B
$GPGSV,3,2,12,06,28,300,32,22,26,265,33,03,18,312,29,29,15,185,24*74
$GPGSV,3,3,12,08,15,050,,09,15,138,,16,00,301,,00,00,000,*71
$GPRMC,140559.24,A,4455.6302,N,09328.5806,W,027.6,089.6,040608,001.2,E,A*2C
$GPGGA,140559.24,4455.6302,N,09328.5806,W,1,04,03.0,00297.0,M,-030.7,M,,*5A
$GPGSA,A,3,21,18,15,24,,,,,,,,,09.0,03.0,08.5*0D
$GPGSV,3,1,12,21,86,273,42,18,66,285,45,15,51,060,38,24,45,125,37*7A
$GPGSV,3,2,12,06,28,300,30,22,26,265,31,03,18,312,27,29,15,185,23*7D
$GPGSV,3,3,12,08,15,050,,09,15,138,,16,00,301,,00,00,000,*71
$GPRMC,140600.24,A,4455.6299,N,09328.5701,W,027.6,089.8,040608,001.2,E,A*26
$GPGGA,140600.24,4455.6299,N,09328.5701,W,1,05,02.2,00297.5,M,-030.7,M,,*59
$GPGSA,A,3,21,18,15,24,,22,,,,,,,03.5,02.2,02.7*09
$GPGSV,3,1,12,21,86,273,42,18,66,285,45,15,51,060,38,24,45,125,37*7A
$GPGSV,3,2,12,06,28,300,28,22,26,265,33,03,18,312,25,29,15,185,22*75
$GPGSV,3,3,12,08,15,050,,09,15,138,,16,00,301,,00,00,000,*71
$GPRMC,140601.24,A,4455.6297,N,09328.5593,W,027.4,092.0,040608,001.2,E,A*20
$GPGGA,140601.24,4455.6297,N,09328.5593,W,1,05,02.2,00297.3,M,-030.7,M,,*59
$GPGSA,A,3,21,18,15,24,,22,,,,,,,03.5,02.2,02.7*09
$GPGSV,3,1,12,21,86,273,42,18,66,285,44,15,51,060,38,24,45,125,36*7A
$GPGSV,3,2,12,06,28,300,29,22,26,265,34,03,18,312,24,29,15,185,22*72
$GPGSV,3,3,12,08,15,050,,09,15,138,,16,00,301,,00,00,000,*71
$GPRMC,140602.24,A,4455.6298,N,09328.5486,W,027.5,085.7,040608,001.2,E,A*29
$GPGGA,140602.24,4455.6298,N,09328.5486,W,1,05,02.8,00297.2,M,-030.7,M,,*5B
$GPGSA,A,3,21,18,15,,,22,03,,,,,,04.1,02.8,03.0*03
$GPGSV,3,1,12,21,86,273,42,18,66,285,44,15,51,060,39,24,45,125,34*79
$GPGSV,3,2,12,06,28,300,29,22,26,265,36,03,18,312,27,29,15,185,20*71
$GPGSV,3,3,12,08,15,050,,09,15,138,,16,00,301,,00,00,000,*71
$GPRMC,140603.24,A,4455.6298,N,09328.5377,W,028.3,087.9,040608,001.2,E,A*24
$GPGGA,140603.24,4455.6298,N,09328.5377,W,1,06,01.6,00297.0,M,-030.7,M,,*5F
$GPGSA,A,3,21,18,15,24,,22,03,,,,,,02.6,01.6,02.1*09
$GPGSV,3,1,12,21,86,273,42,18,66,285,45,15,51,060,38,24,45,125,35*78
$GPGSV,3,2,12,06,28,300,32,22,26,265,38,03,18,312,30,29,15,185,19*79
$GPGSV,3,3,12,08,15,050,,09,15,138,,16,00,301,,00,00,000,*71
$GPRMC,140604.24,A,4455.6299,N,09328.5264,W,028.6,089.0,040608,001.2,E,A*23
$GPGGA,140604.24,4455.6299,N,09328.5264,W,1,05,02.2,00296.8,M,-030.7,M,,*57
$GPGSA,A,3,21,18,15,24,,22,,,,,,,03.5,02.2,02.7*09
$GPGSV,3,1,12,21,86,273,42,18,66,285,46,15,51,060,38,24,45,125,35*7B
$GPGSV,3,2,12,06,28,300,34,22,26,265,39,03,18,312,31,29,15,185,19*7F
$GPGSV,3,3,12,08,15,050,,09,15,138,,16,00,301,,00,00,000,*71
$GPRMC,140605.24,A,4455.6299,N,09328.5154,W,028.5,089.4,040608,001.2,E,A*25
$GPGGA,140605.24,4455.6299,N,09328.5154,W,1,05,02.2,00297.6,M,-030.7,M,,*59
$GPGSA,A,3,21,18,15,24,,22,,,,,,,03.5,02.2,02.7*09
$GPGSV,3,1,12,21,86,273,41,18,66,285,47,15,51,060,38,24,45,125,34*78
$GPGSV,3,2,12,06,28,300,34,22,26,265,40,03,18,312,30,29,15,185,21*7B
$GPGSV,3,3,12,08,15,050,,09,15,138,,16,00,301,,00,00,000,*71
$GPRMC,140606.24,A,4455.6296,N,09328.5042,W,028.2,089.7,040608,001.2,E,A*2B
$GPGGA,140606.24,4455.6296,N,09328.5042,W,1,06,01.6,00298.6,M,-030.7,M,,*58
$GPGSA,A,3,21,18,15,24,,22,03,,,,,,02.6,01.6,02.1*09
$GPGSV,3,1,12,21,86,273,41,18,66,285,47,15,51,060,38,24,45,125,34*78
$GPGSV,3,2,12,06,28,300,33,22,26,265,41,03,18,312,32,29,15,185,21*7F
$GPGSV,3,3,12,08,15,050,,09,15,138,,16,00,301,,00,00,000,*71
$GPRMC,140607.24,A,4455.6292,N,09328.4931,W,028.3,090.0,040608,001.2,E,A*2C
$GPGGA,140607.24,4455.6292,N,09328.4931,W,1,06,01.6,00299.1,M,-030.7,M,,*57
$GPGSA,A,3,21,18,15,24,,22,03,,,,,,02.6,01.6,02.1*09
$GPGSV,3,1,12,21,86,273,40,18,66,285,47,15,51,060,37,24,45,125,35*77
$GPGSV,3,2,12,06,28,300,34,22,26,265,41,03,18,312,34,29,15,185,20*7F
$GPGSV,3,3,12,08,15,050,,09,15,138,,16,00,301,,00,00,000,*71
$GPRMC,140608.24,A,4455.6288,N,09328.4815,W,028.2,090.2,040608,001.2,E,A*2C
$GPGGA,140608.24,4455.6288,N,09328.4815,W,1,06,04.2,00299.5,M,-030.7,M,,*51
$GPGSA,A,3,21,18,15,24,,22,03,,,,,,04.7,04.2,02.1*0F
$GPGSV,3,1,12,21,86,273,39,18,66,285,47,15,51,060,36,24,45,125,34*79
$GPGSV,3,2,12,06,28,300,34,22,26,265,40,03,18,312,34,29,15,185,19*74
$GPGSV,3,3,12,08,15,049,,09,15,138,,16,00,301,,00,00,000,*79
$GPRMC,140609.24,A,4455.6291,N,09328.4709,W,028.2,090.3,040608,001.2,E,A*26
$GPGGA,140609.24,4455.6291,N,09328.4709,W,1,05,02.8,00300.7,M,-030.7,M,,*56
$GPGSA,A,3,21,18,15,,,22,03,,,,,,04.1,02.8,03.0*03
$GPGSV,3,1,12,21,86,273,38,18,66,285,47,15,51,060,36,24,45,125,34*78
$GPGSV,3,2,12,06,28,300,34,22,26,265,40,03,18,312,36,29,15,185,20*7C
$GPGSV,3,3,12,08,15,049,,09,15,138,,16,00,301,,00,00,000,*79
$GPRMC,140610.24,A,4455.6288,N,09328.4596,W,028.1,089.9,040608,001.2,E,A*23
$GPGGA,140610.24,4455.6288,N,09328.4596,W,1,06,01.6,00300.7,M,-030.7,M,,*5C
$GPGSA,A,3,21,18,15,24,,22,03,,,,,,02.6,01.6,02.1*09
$GPGSV,3,1,12,21,86,273,39,18,66,285,47,15,51,060,35,24,45,125,34*7A
$GPGSV,3,2,12,06,28,300,32,22,26,265,40,03,18,312,36,29,15,185,19*70
$GPGSV,3,3,12,08,15,049,,09,15,138,,16,00,301,,00,00,000,*79
$GPRMC,140611.24,A,4455.6289,N,09328.4487,W,028.0,089.9,040608,001.2,E,A*23
$GPGGA,140611.24,4455.6289,N,09328.4487,W,1,05,02.2,00301.8,M,-030.7,M,,*57
$GPGSA,A,3,21,18,15,24,,22,,,,,,,03.5,02.2,02.7*09
$GPGSV,3,1,12,21,86,273,40,18,66,285,47,15,51,060,34,24,45,125,35*74
$GPGSV,3,2,12,06,28,300,29,22,26,265,40,03,18,312,34,29,15,185,19*78
$GPGSV,3,3,12,08,15,049,,09,15,138,,16,00,301,,00,00,000,*79
$GPRMC,140612.24,A,4455.6283,N,09328.4380,W,027.6,090.0,040608,001.2,E,A*22
$GPGGA,140612.24,4455.6283,N,09328.4380,W,1,05,02.2,00304.3,M,-030.7,M,,*50
$GPGSA,A,3,21,18,15,24,,22,,,,,,,03.5,02.2,02.7*09
$GPGSV,3,1,12,21,86,273,40,18,66,285,46,15,51,060,35,24,45,125,36*77
$GPGSV,3,2,12,06,28,300,27,22,26,265,40,03,18,312,33,29,15,185,19*71
$GPGSV,3,3,12,08,15,049,,09,15,138,,16,00,301,,00,00,000,*79
$GPRMC,140613.24,A,4455.6277,N,09328.4272,W,026.4,090.2,040608,001.2,E,A*25
$GPGGA,140613.24,4455.6277,N,09328.4272,W,1,06,01.6,00304.8,M,-030.7,M,,*59
$GPGSA,A,3,21,18,15,24,,22,03,,,,,,02.6,01.6,02.1*09
$GPGSV,3,1,12,21,86,273,41,18,66,285,45,15,51,060,35,24,45,125,37*74
$GPGSV,3,2,12,06,28,300,26,22,26,265,40,03,18,312,34,29,15,185,19*77
$GPGSV,3,3,12,08,15,049,,09,15,138,,16,00,301,,00,00,000,*79
